[
  {
    "address": "1122 Nucla St, Aurora, CO",
    "price": 2625.0,
    "beds": 4.0,
    "baths": 2.0,
    "sqft": 1500.0,
    "year_built": "N/A",
    "description": "",
    "url": "https://www.zillow.com/homedetails/13060387_zpid/",
    "location": "Aurora, CO",
    "list_date": 167148000,
    "primary_photo": "https://photos.zillowstatic.com/fp/7cea21ddfa8e16a80892ae7305732044-p_e.jpg",
    "alt_photos": [],
    "latitude": 39.733986,
    "longitude": -104.793884
  },
  {
    "address": "18501 E Tanforan Pl, Aurora, CO",
    "price": 2649.0,
    "beds": 3.0,
    "baths": 3.0,
    "sqft": 1554.0,
    "year_built": "N/A",
    "description": "",
    "url": "https://www.zillow.com/homedetails/13108847_zpid/",
    "location": "Aurora, CO",
    "list_date": 79419000,
    "primary_photo": "https://photos.zillowstatic.com/fp/c72393b1261a5a36599f22fb5c3e2f5f-p_e.jpg",
    "alt_photos": [],
    "latitude": 39.62965,
    "longitude": -104.7736
  },
  {
    "address": "3682 S Himalaya Ct, Aurora, CO",
    "price": 2700.0,
    "beds": 3.0,
    "baths": 3.0,
    "sqft": 1469.0,
    "year_built": "N/A",
    "description": "",
    "url": "https://www.zillow.com/homedetails/13091706_zpid/",
    "location": "Aurora, CO",
    "list_date": 841233000,
    "primary_photo": "https://photos.zillowstatic.com/fp/f3134c94161072330295ab5229fb8da5-p_e.jpg",
    "alt_photos": [],
    "latitude": 39.649406,
    "longitude": -104.752815
  },
  {
    "address": "20111 E Grand Pl, Aurora, CO",
    "price": 2695.0,
    "beds": 4.0,
    "baths": 3.0,
    "sqft": 2145.0,
    "year_built": "N/A",
    "description": "",
    "url": "https://www.zillow.com/homedetails/54645393_zpid/",
    "location": "Aurora, CO",
    "list_date": 361917000,
    "primary_photo": "https://photos.zillowstatic.com/fp/2c14e03534cff182fa9308e6576909b2-p_e.jpg",
    "alt_photos": [],
    "latitude": 39.626095,
    "longitude": -104.75351
  },
  {
    "address": "4288 S Jericho St, Aurora, CO",
    "price": 2695.0,
    "beds": 3.0,
    "baths": 3.0,
    "sqft": 1608.0,
    "year_built": "N/A",
    "description": "",
    "url": "https://www.zillow.com/homedetails/13092462_zpid/",
    "location": "Aurora, CO",
    "list_date": 181000000,
    "primary_photo": "https://photos.zillowstatic.com/fp/680ef1eb1136c2c68bcff0a36b1731d6-p_e.jpg",
    "alt_photos": [],
    "latitude": 39.639355,
    "longitude": -104.74815
  },
  {
    "address": "15840 E Utah Pl, Aurora, CO",
    "price": 2600.0,
    "beds": 3.0,
    "baths": 2.0,
    "sqft": 1562.0,
    "year_built": "N/A",
    "description": "",
    "url": "https://www.zillow.com/homedetails/13071435_zpid/",
    "location": "Aurora, CO",
    "list_date": 1054952000,
    "primary_photo": "https://photos.zillowstatic.com/fp/a4616d14430d7cae2a632239e0025804-p_e.jpg",
    "alt_photos": [],
    "latitude": 39.68308,
    "longitude": -104.80375
  },
  {
    "address": "3705 S Lewiston St, Aurora, CO",
    "price": 2560.0,
    "beds": 2.0,
    "baths": 2.0,
    "sqft": 1824.0,
    "year_built": "N/A",
    "description": "",
    "url": "https://www.zillow.com/homedetails/13098402_zpid/",
    "location": "Aurora, CO",
    "list_date": 2066060000,
    "primary_photo": "https://photos.zillowstatic.com/fp/0505bd2dc61aff97f9fb0cb82e761371-p_e.jpg",
    "alt_photos": [],
    "latitude": 39.65088,
    "longitude": -104.79875
  },
  {
    "address": "24651 E Kansas Cir, Aurora, CO",
    "price": 2675.0,
    "beds": 4.0,
    "baths": 3.0,
    "sqft": 1538.0,
    "year_built": "N/A",
    "description": "",
    "url": "https://www.zillow.com/homedetails/58888457_zpid/",
    "location": "Aurora, CO",
    "list_date": 1387323000,
    "primary_photo": "https://photos.zillowstatic.com/fp/a2ba37c033257949874642d3d648f3b2-p_e.jpg",
    "alt_photos": [],
    "latitude": 39.69617,
    "longitude": -104.70025
  }
]