[
  {
    "address": "19620 E 59th Dr, Aurora, CO",
    "price": 2650.0,
    "beds": 2.0,
    "baths": 2.0,
    "sqft": 1294.0,
    "year_built": "N/A",
    "description": "",
    "url": "https://www.zillow.com/homedetails/49458018_zpid/",
    "location": "Aurora, CO",
    "list_date": 103321000,
    "primary_photo": "https://photos.zillowstatic.com/fp/d1f9ca3ae3dab97d41082d32f75b9ad3-p_e.jpg",
    "alt_photos": [],
    "latitude": 39.804874,
    "longitude": -104.759834
  },
  {
    "address": "15761 E 13th Pl, Aurora, CO",
    "price": 1775.0,
    "beds": 2.0,
    "baths": 2.0,
    "sqft": 980.0,
    "year_built": "N/A",
    "description": "",
    "url": "https://www.zillow.com/homedetails/13060619_zpid/",
    "location": "Aurora, CO",
    "list_date": 582139000,
    "primary_photo": "https://photos.zillowstatic.com/fp/701c84c595cfff1e42ca85be57ca2390-p_e.jpg",
    "alt_photos": [],
    "latitude": 39.737724,
    "longitude": -104.80478
  },
  {
    "address": "3811 S Atchison Way, Aurora, CO",
    "price": 2600.0,
    "beds": 3.0,
    "baths": 2.0,
    "sqft": 1271.0,
    "year_built": "N/A",
    "description": "",
    "url": "https://www.zillow.com/homedetails/13101482_zpid/",
    "location": "Aurora, CO",
    "list_date": 441699000,
    "primary_photo": "https://photos.zillowstatic.com/fp/f882db155b19770a37d124a5a9262892-p_e.jpg",
    "alt_photos": [],
    "latitude": 39.643154,
    "longitude": -104.82842
  },
  {
    "address": "2255 Nome St, Aurora, CO",
    "price": 2195.0,
    "beds": 3.0,
    "baths": 2.0,
    "sqft": 1220.0,
    "year_built": "N/A",
    "description": "",
    "url": "https://www.zillow.com/homedetails/13020351_zpid/",
    "location": "Aurora, CO",
    "list_date": 530275000,
    "primary_photo": "https://photos.zillowstatic.com/fp/09aa232cfef9a3e2047c8beb8da5ef74-p_e.jpg",
    "alt_photos": [],
    "latitude": 39.750263,
    "longitude": -104.85204
  },
  {
    "address": "2863 S Joplin Ct, Aurora, CO",
    "price": 2600.0,
    "beds": 4.0,
    "baths": 2.0,
    "sqft": 1296.0,
    "year_built": "N/A",
    "description": "",
    "url": "https://www.zillow.com/homedetails/13084911_zpid/",
    "location": "Aurora, CO",
    "list_date": 433357000,
    "primary_photo": "https://photos.zillowstatic.com/fp/cd41537a2bfd495f7172eae6c86226f1-p_e.jpg",
    "alt_photos": [],
    "latitude": 39.66428,
    "longitude": -104.8043
  },
  {
    "address": "1201 Lansing St, Aurora, CO",
    "price": 2675.0,
    "beds": 4.0,
    "baths": 2.0,
    "sqft": 1756.0,
    "year_built": "N/A",
    "description": "",
    "url": "https://www.zillow.com/homedetails/13034176_zpid/",
    "location": "Aurora, CO",
    "list_date": 2694880000,
    "primary_photo": "https://photos.zillowstatic.com/fp/b0e27f86cccb8018fe28ae5c58fea019-p_e.jpg",
    "alt_photos": [],
    "latitude": 39.734814,
    "longitude": -104.85799
  },
  {
    "address": "1122 Nucla St, Aurora, CO",
    "price": 2625.0,
    "beds": 4.0,
    "baths": 2.0,
    "sqft": 1500.0,
    "year_built": "N/A",
    "description": "",
    "url": "https://www.zillow.com/homedetails/13060387_zpid/",
    "location": "Aurora, CO",
    "list_date": 163772000,
    "primary_photo": "https://photos.zillowstatic.com/fp/7cea21ddfa8e16a80892ae7305732044-p_e.jpg",
    "alt_photos": [],
    "latitude": 39.733986,
    "longitude": -104.793884
  },
  {
    "address": "1673 S Quintero Way, Aurora, CO",
    "price": 2595.0,
    "beds": 4.0,
    "baths": 2.0,
    "sqft": 1764.0,
    "year_built": "N/A",
    "description": "",
    "url": "https://www.zillow.com/homedetails/13073555_zpid/",
    "location": "Aurora, CO",
    "list_date": 438117000,
    "primary_photo": "https://photos.zillowstatic.com/fp/d0d370cb4aa1cb719f39b9ba189dc8d4-p_e.jpg",
    "alt_photos": [],
    "latitude": 39.687584,
    "longitude": -104.78675
  },
  {
    "address": "18501 E Tanforan Pl, Aurora, CO",
    "price": 2649.0,
    "beds": 3.0,
    "baths": 3.0,
    "sqft": 1554.0,
    "year_built": "N/A",
    "description": "",
    "url": "https://www.zillow.com/homedetails/13108847_zpid/",
    "location": "Aurora, CO",
    "list_date": 76043000,
    "primary_photo": "https://photos.zillowstatic.com/fp/c72393b1261a5a36599f22fb5c3e2f5f-p_e.jpg",
    "alt_photos": [],
    "latitude": 39.62965,
    "longitude": -104.7736
  },
  {
    "address": "20111 E Grand Pl, Aurora, CO",
    "price": 2695.0,
    "beds": 4.0,
    "baths": 3.0,
    "sqft": 2145.0,
    "year_built": "N/A",
    "description": "",
    "url": "https://www.zillow.com/homedetails/54645393_zpid/",
    "location": "Aurora, CO",
    "list_date": 358541000,
    "primary_photo": "https://photos.zillowstatic.com/fp/2c14e03534cff182fa9308e6576909b2-p_e.jpg",
    "alt_photos": [],
    "latitude": 39.626095,
    "longitude": -104.75351
  },
  {
    "address": "3682 S Himalaya Ct, Aurora, CO",
    "price": 2700.0,
    "beds": 3.0,
    "baths": 3.0,
    "sqft": 1469.0,
    "year_built": "N/A",
    "description": "",
    "url": "https://www.zillow.com/homedetails/13091706_zpid/",
    "location": "Aurora, CO",
    "list_date": 837857000,
    "primary_photo": "https://photos.zillowstatic.com/fp/f3134c94161072330295ab5229fb8da5-p_e.jpg",
    "alt_photos": [],
    "latitude": 39.649406,
    "longitude": -104.752815
  }
]