[
  {
    "address": "19620 E 59th Dr, Aurora, CO",
    "price": 2500.0,
    "beds": 2.0,
    "baths": 2.0,
    "sqft": 1294.0,
    "year_built": "N/A",
    "description": "",
    "url": "https://www.zillow.com/homedetails/49458018_zpid/",
    "location": "Aurora, CO",
    "list_date": 499539000,
    "primary_photo": "https://photos.zillowstatic.com/fp/d1f9ca3ae3dab97d41082d32f75b9ad3-p_e.jpg",
    "alt_photos": [],
    "latitude": 39.804874,
    "longitude": -104.759834
  },
  {
    "address": "3762 S Genoa Cir UNIT B, Aurora, CO",
    "price": 2499.0,
    "beds": 4.0,
    "baths": 2.0,
    "sqft": 1361.0,
    "year_built": "N/A",
    "description": "",
    "url": "https://www.zillow.com/homedetails/13092849_zpid/",
    "location": "Aurora, CO",
    "list_date": 1250028000,
    "primary_photo": "https://photos.zillowstatic.com/fp/634ecc7fff89906f920205fca57ec337-p_e.jpg",
    "alt_photos": [],
    "latitude": 39.647495,
    "longitude": -104.758316
  },
  {
    "address": "4208 S Himalaya Way, Aurora, CO",
    "price": 2695.0,
    "beds": 3.0,
    "baths": 2.0,
    "sqft": 1297.0,
    "year_built": "N/A",
    "description": "",
    "url": "https://www.zillow.com/homedetails/13092108_zpid/",
    "location": "Aurora, CO",
    "list_date": 23677000,
    "primary_photo": "https://photos.zillowstatic.com/fp/76c08c1b04ea4e2b88e6dc065e77a8ef-p_e.jpg",
    "alt_photos": [],
    "latitude": 39.64011,
    "longitude": -104.75307
  },
  {
    "address": "981 Vaughn St, Aurora, CO",
    "price": 2700.0,
    "beds": 3.0,
    "baths": 2.0,
    "sqft": 1098.0,
    "year_built": "N/A",
    "description": "",
    "url": "https://www.zillow.com/homedetails/13033391_zpid/",
    "location": "Aurora, CO",
    "list_date": 1849708000,
    "primary_photo": "https://photos.zillowstatic.com/fp/078ae6e1d7beb6b488fabb42a87f0d39-p_e.jpg",
    "alt_photos": [],
    "latitude": 39.73152,
    "longitude": -104.834885
  },
  {
    "address": "1122 Nucla St, Aurora, CO",
    "price": 2625.0,
    "beds": 4.0,
    "baths": 2.0,
    "sqft": 1500.0,
    "year_built": "N/A",
    "description": "",
    "url": "https://www.zillow.com/homedetails/13060387_zpid/",
    "location": "Aurora, CO",
    "list_date": 559990000,
    "primary_photo": "https://photos.zillowstatic.com/fp/7cea21ddfa8e16a80892ae7305732044-p_e.jpg",
    "alt_photos": [],
    "latitude": 39.733986,
    "longitude": -104.793884
  },
  {
    "address": "18358 E Layton Pl, Aurora, CO",
    "price": 2565.0,
    "beds": 5.0,
    "baths": 2.0,
    "sqft": 1738.0,
    "year_built": "N/A",
    "description": "",
    "url": "https://www.zillow.com/homedetails/13108683_zpid/",
    "location": "Aurora, CO",
    "list_date": 39804000,
    "primary_photo": "https://photos.zillowstatic.com/fp/9f22bcab05d9f5d6beb38a4d3af91dfa-p_e.jpg",
    "alt_photos": [],
    "latitude": 39.62716,
    "longitude": -104.77481
  },
  {
    "address": "15006 E Oregon Dr, Aurora, CO",
    "price": 2315.0,
    "beds": 3.0,
    "baths": 2.0,
    "sqft": 1278.0,
    "year_built": "N/A",
    "description": "",
    "url": "https://www.zillow.com/homedetails/13069788_zpid/",
    "location": "Aurora, CO",
    "list_date": 43530000,
    "primary_photo": "https://photos.zillowstatic.com/fp/0505bd2dc61aff97f9fb0cb82e761371-p_e.jpg",
    "alt_photos": [],
    "latitude": 39.6857,
    "longitude": -104.8125
  },
  {
    "address": "19684 E Girard Dr, Aurora, CO",
    "price": 2565.0,
    "beds": 3.0,
    "baths": 2.0,
    "sqft": 1379.0,
    "year_built": "N/A",
    "description": "",
    "url": "https://www.zillow.com/homedetails/13089606_zpid/",
    "location": "Aurora, CO",
    "list_date": 126358000,
    "primary_photo": "https://photos.zillowstatic.com/fp/f30ea9d1fa735323ca75aa5bef47ef6c-p_e.jpg",
    "alt_photos": [],
    "latitude": 39.65455,
    "longitude": -104.75874
  },
  {
    "address": "23607 E 2nd Pl, Aurora, CO",
    "price": 2645.0,
    "beds": 3.0,
    "baths": 3.0,
    "sqft": 1730.0,
    "year_built": "N/A",
    "description": "",
    "url": "https://www.zillow.com/homedetails/447259589_zpid/",
    "location": "Aurora, CO",
    "list_date": 138637000,
    "primary_photo": "https://photos.zillowstatic.com/fp/66f19fc18f170cc6ae319c793e4a57cb-p_e.jpg",
    "alt_photos": [],
    "latitude": 39.72212,
    "longitude": -104.71223
  },
  {
    "address": "23621 E 2nd Pl, Aurora, CO",
    "price": 2645.0,
    "beds": 3.0,
    "baths": 3.0,
    "sqft": 1730.0,
    "year_built": "N/A",
    "description": "",
    "url": "https://www.zillow.com/homedetails/447259731_zpid/",
    "location": "Aurora, CO",
    "list_date": 138234000,
    "primary_photo": "https://photos.zillowstatic.com/fp/fdf0fd1b3fda72bdeb1687e5e1d2b530-p_e.jpg",
    "alt_photos": [],
    "latitude": 39.72226,
    "longitude": -104.712105
  },
  {
    "address": "15840 E Utah Pl, Aurora, CO",
    "price": 2600.0,
    "beds": 3.0,
    "baths": 2.0,
    "sqft": 1562.0,
    "year_built": "N/A",
    "description": "",
    "url": "https://www.zillow.com/homedetails/13071435_zpid/",
    "location": "Aurora, CO",
    "list_date": 1447794000,
    "primary_photo": "https://photos.zillowstatic.com/fp/a4616d14430d7cae2a632239e0025804-p_e.jpg",
    "alt_photos": [],
    "latitude": 39.68308,
    "longitude": -104.80375
  }
]