bathrooms,bedrooms,city,country,currency,datePriceChanged,daysOnZillow,homeStatus,homeStatusForHDP,homeType,imgSrc,isFeatured,isNonOwnerOccupied,isPreforeclosureAuction,isPremierBuilder,isRentalWithBasePrice,isShowcaseListing,isUnmappable,isZillowOwned,latitude,listing_sub_type,livingArea,longitude,lotAreaUnit,lotAreaValue,price,priceChange,priceForHDP,priceReduction,rentZestimate,shouldHighlight,state,streetAddress,taxAssessedValue,timeOnZillow,zestimate,zipcode,zpid
2.0,4.0,Bloomington,USA,USD,,0,FOR_RENT,FOR_RENT,SINGLE_FAMILY,https://photos.zillowstatic.com/fp/fa37a156979f227b7f493a411daddbc7-p_e.jpg,True,True,False,False,False,False,False,False,44.818443,{},1900.0,-93.2802,,,2100.0,,2100.0,,2438,False,MN,10208 Blaisdell Ave S,336000.0,345787000,373900,55420,1904476
2.0,3.0,Bloomington,USA,USD,,0,FOR_RENT,FOR_RENT,SINGLE_FAMILY,https://photos.zillowstatic.com/fp/1a7e6d018c7c1bbdadb8860e5e1fc792-p_e.jpg,True,True,False,False,False,False,False,False,44.84603,{},1104.0,-93.31609,,,2295.0,,2295.0,,2485,False,MN,2907 W 87th St,325900.0,634500000,330500,55431,1758344
2.0,4.0,Bloomington,USA,USD,,0,FOR_RENT,FOR_RENT,SINGLE_FAMILY,https://photos.zillowstatic.com/fp/f68d6a8dbd0acf675d6fc1c45d6fba1c-p_e.jpg,True,True,False,False,False,False,False,False,44.806744,{},1800.0,-93.345436,,,2655.0,,2655.0,,2398,False,MN,10808 Rich Ave S,362800.0,1248096000,367100,55437,1872557
3.0,4.0,Bloomington,USA,USD,1737532800000,0,FOR_RENT,FOR_RENT,SINGLE_FAMILY,https://photos.zillowstatic.com/fp/ec0c545acf9ad472a016ac2b1b7e531c-p_e.jpg,True,True,False,False,False,False,False,False,44.800247,{},2100.0,-93.3335,acres,0.368,2699.0,-151,2699.0,$151 (Jan 22),2695,False,MN,4201 113th St W,393400.0,3231063000,401400,55437,1966781
2.0,2.0,Bloomington,USA,USD,1737705600000,0,FOR_RENT,FOR_RENT,SINGLE_FAMILY,https://photos.zillowstatic.com/fp/fea3d7dae87734ce4a3eabf78c9887cb-p_e.jpg,True,True,False,False,False,False,False,False,44.85064,{},1200.0,-93.2952,,,2100.0,-50,2100.0,$50 (Jan 24),2103,False,MN,8426 Emerson Ave S,264700.0,7373083000,276300,55420,1716961
1.0,3.0,Bloomington,USA,USD,1738742400000,0,FOR_RENT,FOR_RENT,SINGLE_FAMILY,https://photos.zillowstatic.com/fp/033a688e25048667dc957e262d5cf3eb-p_e.jpg,True,True,False,False,False,False,False,False,44.85399,{},856.0,-93.259605,,,1850.0,-74,1850.0,$74 (Feb 5),1902,False,MN,8232 11th Ave S,235200.0,7022535000,241600,55420,1703166
2.0,3.0,Bloomington,USA,USD,,0,FOR_RENT,FOR_RENT,SINGLE_FAMILY,https://photos.zillowstatic.com/fp/5c89e80385aa5fc05f2ff236278080ae-p_e.jpg,False,True,False,False,False,False,False,False,44.84599,{},1900.0,-93.264084,,,2495.0,,2495.0,,2598,False,MN,8701 Columbus Ave S,344300.0,2435315000,350600,55420,1789012
