bathrooms,bedrooms,city,country,currency,datePriceChanged,daysOnZillow,homeStatus,homeStatusForHDP,homeType,imgSrc,isFeatured,isNonOwnerOccupied,isPreforeclosureAuction,isPremierBuilder,isRentalWithBasePrice,isShowcaseListing,isUnmappable,isZillowOwned,latitude,listing_sub_type,livingArea,longitude,price,priceChange,priceForHDP,priceReduction,rentZestimate,shouldHighlight,state,streetAddress,taxAssessedValue,timeOnZillow,zestimate,zipcode,zpid
1.0,3.0,Englewood,USA,USD,,0,FOR_RENT,FOR_RENT,SINGLE_FAMILY,https://photos.zillowstatic.com/fp/74573fbf2eee1f3363463ec969c1c77d-p_e.jpg,True,True,False,False,False,False,False,False,39.6432,{},962.0,-104.996826,2500.0,,2500.0,,2426,False,CO,4030 S Huron St,468600.0,47876000,467700,80110,13143499
3.0,4.0,Englewood,USA,USD,,0,FOR_RENT,FOR_RENT,SINGLE_FAMILY,https://photos.zillowstatic.com/fp/1651be5522daa8b06f866592b0e490a4-p_e.jpg,True,True,False,False,False,False,False,False,39.576157,{},2450.0,-104.80409,3000.0,,3000.0,,3086,False,CO,7735 S Joplin Ct,675800.0,732961000,616900,80112,87627351
2.0,3.0,Englewood,USA,USD,,0,FOR_RENT,FOR_RENT,SINGLE_FAMILY,https://photos.zillowstatic.com/fp/e454f4d580fa2314bfffdd677def7d76-p_e.jpg,True,True,False,False,False,False,False,False,39.63779,{},1904.0,-104.98162,3100.0,,3100.0,,3388,False,CO,4340 S Pennsylvania St,579200.0,823390000,593200,80113,13147090
1.0,2.0,Englewood,USA,USD,,0,FOR_RENT,FOR_RENT,SINGLE_FAMILY,https://photos.zillowstatic.com/fp/cde424032ea6f71cfb4a768fde33f646-p_e.jpg,True,True,False,False,False,False,False,False,39.655933,{},1168.0,-104.98206,2300.0,,2300.0,,2241,False,CO,3337 S Pennsylvania St,523600.0,72317000,479800,80113,13030090
1.0,2.0,Englewood,USA,USD,,0,FOR_RENT,FOR_RENT,SINGLE_FAMILY,https://photos.zillowstatic.com/fp/be7aac5c748ac2adb3074c7a4d219178-p_e.jpg,True,True,False,False,False,False,False,False,39.657597,{},852.0,-104.98259,2000.0,,2000.0,,2118,False,CO,3262 S Logan St,526900.0,429040000,478300,80113,13029939
2.0,4.0,Englewood,USA,USD,,0,FOR_RENT,FOR_RENT,SINGLE_FAMILY,https://photos.zillowstatic.com/fp/195a7bc3fb92810063d3ba714a41c04d-p_e.jpg,True,True,False,False,False,False,False,False,39.635647,{},1820.0,-104.98464,4500.0,,4500.0,,3953,False,CO,4459 S Grant St,507300.0,7463017000,611800,80113,13147241
1.0,2.0,Englewood,USA,USD,,0,FOR_RENT,FOR_RENT,SINGLE_FAMILY,https://photos.zillowstatic.com/fp/61ec7a8db6e64ddc3478ef43b6f7f4da-p_e.jpg,True,True,False,False,False,False,False,False,39.66336,{},900.0,-104.99266,2195.0,,2195.0,,1837,False,CO,2937 S Delaware St,660000.0,1224210000,531500,80110,13029234
2.0,3.0,Englewood,USA,USD,,0,FOR_RENT,FOR_RENT,SINGLE_FAMILY,https://photos.zillowstatic.com/fp/7d1be22a7c09a833798ec0e0cd62d8d8-p_e.jpg,True,True,False,False,False,False,False,False,39.637196,{},931.0,-104.979996,3450.0,,3450.0,,2978,False,CO,4379 S Washington St,576400.0,2432362000,565300,80113,13147076
1.0,2.0,Englewood,USA,USD,,0,FOR_RENT,FOR_RENT,SINGLE_FAMILY,https://photos.zillowstatic.com/fp/8924cafc02d425ce7fcd3cf8eb3e299a-p_e.jpg,False,True,False,False,False,False,False,False,39.66332,{},950.0,-104.9892,3000.0,,3000.0,,1972,False,CO,2939 S Acoma St,522000.0,131509000,483200,80110,13029306
2.0,4.0,Englewood,USA,USD,,0,FOR_RENT,FOR_RENT,SINGLE_FAMILY,https://photos.zillowstatic.com/fp/fffedec43d8c49c1d8b7c5d98c9d168d-p_e.jpg,False,True,False,False,False,False,False,False,39.64874,{},1656.0,-104.99156,3250.0,,3250.0,,2684,False,CO,3725 S Cherokee St,592600.0,85016000,568500,80110,13142984
2.0,4.0,Englewood,USA,USD,1739001600000,0,FOR_RENT,FOR_RENT,SINGLE_FAMILY,https://photos.zillowstatic.com/fp/99974c570255d7aab9495a912e82309d-p_e.jpg,False,True,False,False,False,False,False,False,39.67043,{},1275.0,-105.0136,3200.0,-300,3200.0,$300 (Feb 8),2499,False,CO,2224 W Hillside Ave,484800.0,972276000,417100,80110,13027965
1.0,3.0,Englewood,USA,USD,,0,FOR_RENT,FOR_RENT,SINGLE_FAMILY,https://photos.zillowstatic.com/fp/0a4debc6eb03e4f960836c0d992e5a80-p_e.jpg,False,True,False,False,False,False,False,False,39.654266,{},1905.0,-104.98327,4000.0,,4000.0,,2466,False,CO,3443 S Logan St,589500.0,3166117000,563600,80113,13030144
2.0,3.0,Englewood,USA,USD,,0,FOR_RENT,FOR_RENT,SINGLE_FAMILY,https://photos.zillowstatic.com/fp/8607f41cf7253fd01b3c4c81262c6c6f-p_e.jpg,False,True,False,False,False,False,False,False,39.66323,{},1640.0,-104.97784,3100.0,,3100.0,,2848,False,CO,2944 S Clarkson St,783000.0,737793000,673300,80113,13030436
2.0,4.0,Englewood,USA,USD,,0,FOR_RENT,FOR_RENT,SINGLE_FAMILY,https://photos.zillowstatic.com/fp/7b2a0dfc0267f37df7cb2a7889545fa5-p_e.jpg,False,True,False,False,False,False,False,False,39.664845,{},2154.0,-104.984406,3500.0,,3500.0,,2728,False,CO,2847 S Grant St,750200.0,846317000,705400,80113,13028887
2.0,3.0,Englewood,USA,USD,1737619200000,0,FOR_RENT,FOR_RENT,SINGLE_FAMILY,https://photos.zillowstatic.com/fp/f2f14f380fa67c8c50d1df017e7b94eb-p_e.jpg,False,True,False,False,False,False,False,False,39.660904,{},1680.0,-104.97611,4800.0,-200,4800.0,$200 (Jan 23),2651,False,CO,3071 S Ogden St,709600.0,3611157000,680200,80113,13030719
1.0,2.0,Englewood,USA,USD,,0,FOR_RENT,FOR_RENT,SINGLE_FAMILY,https://photos.zillowstatic.com/fp/47c387c7c8d474ae8e391025387bde78-p_e.jpg,False,True,False,False,False,False,False,False,39.630917,{},936.0,-104.98643,1875.0,,1875.0,,1844,False,CO,4710 S Lincoln St,,1101753000,416600,80113,2056958967
2.0,4.0,Englewood,USA,USD,,0,FOR_RENT,FOR_RENT,SINGLE_FAMILY,https://photos.zillowstatic.com/fp/8c3b1666322f72686742454a062c1deb-p_e.jpg,False,True,False,False,False,False,False,False,39.656914,{},2166.0,-104.96616,3395.0,,3395.0,,3587,False,CO,3290 S Williams St,735700.0,847808000,702600,80113,13031346
1.0,3.0,Englewood,USA,USD,1736409600000,0,FOR_RENT,FOR_RENT,SINGLE_FAMILY,https://photos.zillowstatic.com/fp/acf157cbd5eed7e91a9b09d637e000ad-p_e.jpg,False,True,False,False,False,False,False,False,39.663376,{},1800.0,-104.97976,3000.0,-200,3000.0,$200 (Jan 9),2640,False,CO,2931 S Washington St,840000.0,3863003000,1062600,80113,181315276
1.0,2.0,Englewood,USA,USD,,0,FOR_RENT,FOR_RENT,SINGLE_FAMILY,https://photos.zillowstatic.com/fp/f7c1c24e72cc09909b8c022b44baacef-p_e.jpg,False,True,False,False,False,False,False,False,39.657276,{},744.0,-104.97066,2100.0,,2100.0,,1743,False,CO,3245 S Humboldt St,492800.0,146570000,464200,80113,13031000
1.0,2.0,Englewood,USA,USD,1737100800000,0,FOR_RENT,FOR_RENT,SINGLE_FAMILY,https://photos.zillowstatic.com/fp/1304d8482a23cbed4c19e7493ad69e1d-p_e.jpg,False,True,False,False,False,False,False,False,39.637875,{},1497.0,-104.98461,2100.0,-200,2100.0,$200 (Jan 17),2643,False,CO,4335 S Grant St,485500.0,13200213000,499500,80113,13147169
2.0,3.0,Englewood,USA,USD,,0,FOR_RENT,FOR_RENT,SINGLE_FAMILY,https://photos.zillowstatic.com/fp/6191b3b05898b713cf6d116546f89f05-p_e.jpg,False,True,False,False,False,False,False,False,39.566303,{},1456.0,-104.793625,2800.0,,2800.0,,2411,False,CO,8284 S Olathe Ct,596500.0,1225220000,,80112,58884814
