bathrooms,bedrooms,city,country,currency,datePriceChanged,daysOnZillow,homeStatus,homeStatusForHDP,homeType,imgSrc,isFeatured,isNonOwnerOccupied,isPreforeclosureAuction,isPremierBuilder,isRentalWithBasePrice,isShowcaseListing,isUnmappable,isZillowOwned,latitude,listing_sub_type,livingArea,longitude,price,priceChange,priceForHDP,priceReduction,rentZestimate,shouldHighlight,state,streetAddress,taxAssessedValue,timeOnZillow,unit,zestimate,zipcode,zpid
1.0,2.0,Denver,USA,USD,,0,FOR_RENT,FOR_RENT,SINGLE_FAMILY,https://photos.zillowstatic.com/fp/cb586fd5b1172c64a847fb722ced6f49-p_e.jpg,True,True,False,False,False,False,False,False,39.731853,{},750.0,-105.09002,1500.0,,1500.0,,,False,CO,951 Brentwood St,,445155000,,,80214,446860544
2.0,3.0,Lakewood,USA,USD,,0,FOR_RENT,FOR_RENT,SINGLE_FAMILY,https://photos.zillowstatic.com/fp/8fda69547c48e306992fea749abc368f-p_e.jpg,True,True,False,False,False,False,False,False,39.74711,{},864.0,-105.06418,2595.0,,2595.0,,2846,False,CO,1985 Ingalls St,572148.0,755883000,,532200,80214,13749692
3.0,2.0,Lakewood,USA,USD,,7,FOR_RENT,FOR_RENT,SINGLE_FAMILY,https://photos.zillowstatic.com/fp/46e63e37a60e9f9da94008cceffa5e21-p_e.jpg,True,True,False,False,False,False,False,False,39.682793,{},1057.0,-105.15446,2300.0,,2300.0,,2178,False,CO,1880 S Cole St UNIT B3,404410.0,641814000,Unit B3,406900,80228,51407765
2.0,1.0,Lakewood,USA,USD,1737792000000,0,FOR_RENT,FOR_RENT,SINGLE_FAMILY,https://photos.zillowstatic.com/fp/703001f635f0347b23481e27c2309d6a-p_e.jpg,True,True,False,False,False,False,False,False,39.7538,{},1010.0,-105.10463,1700.0,-100,1700.0,$100 (Jan 25),1725,False,CO,9604 W 25th Pl #B,618439.0,2574074000,# B,790800,80215,13746912
1.0,2.0,Lakewood,USA,USD,,0,FOR_RENT,FOR_RENT,SINGLE_FAMILY,https://photos.zillowstatic.com/fp/01ceb581af9e9e9077da281a9868829c-p_e.jpg,False,True,False,False,False,False,False,False,39.6884,{},1013.0,-105.09815,2200.0,,2200.0,,1964,False,CO,1556 S Field Ct,533071.0,110793000,,539900,80232,13783101
2.0,3.0,Lakewood,USA,USD,,0,FOR_RENT,FOR_RENT,SINGLE_FAMILY,https://photos.zillowstatic.com/fp/945f531310f60393b6a4065301bab58c-p_e.jpg,False,True,False,False,False,False,False,False,39.734566,{},1910.0,-105.07583,2650.0,,2650.0,,2919,False,CO,7100 W 12th Ave,528836.0,368617000,,634100,80214,13760533
2.0,2.0,Denver,USA,USD,,0,FOR_RENT,FOR_RENT,SINGLE_FAMILY,https://photos.zillowstatic.com/fp/e3ed715037c3789ed504cb397135ee14-p_e.jpg,False,True,False,False,False,False,False,False,39.717773,{},1100.0,-105.14282,2200.0,,2200.0,,2348,False,CO,136 Yank Way,,324277000,,355300,80228,2060660015
1.0,2.0,Denver,USA,USD,,0,FOR_RENT,FOR_RENT,SINGLE_FAMILY,https://photos.zillowstatic.com/fp/b583fca4825e63a7b862cf7964a0b851-p_e.jpg,False,True,False,False,False,False,False,False,39.751072,{},700.0,-105.10151,1685.0,,1685.0,,1865,False,CO,2352 Garland St,,4964182000,,426900,80215,2052899708
1.0,3.0,Lakewood,USA,USD,,0,FOR_RENT,FOR_RENT,SINGLE_FAMILY,https://photos.zillowstatic.com/fp/5fcb8d0b029904ae428ba5f3ee2d3a23-p_e.jpg,False,True,False,False,False,False,False,False,39.739647,{},1584.0,-105.05403,2195.0,,2195.0,,2197,False,CO,1460 Ames St,426669.0,5448667000,,522400,80214,13759479
