bathrooms,bedrooms,city,country,currency,datePriceChanged,daysOnZillow,homeStatus,homeStatusForHDP,homeType,imgSrc,isFeatured,isNonOwnerOccupied,isPreforeclosureAuction,isPremierBuilder,isRentalWithBasePrice,isShowcaseListing,isUnmappable,isZillowOwned,latitude,listing_sub_type,livingArea,longitude,lotAreaUnit,lotAreaValue,price,priceChange,priceForHDP,priceReduction,rentZestimate,shouldHighlight,state,streetAddress,taxAssessedValue,timeOnZillow,zestimate,zipcode,zpid
2.0,5.0,Longmont,USA,USD,,0,FOR_RENT,FOR_RENT,SINGLE_FAMILY,https://photos.zillowstatic.com/fp/effaccb7b1124af12f0ae3e735cf721d-p_e.jpg,True,True,False,False,False,False,False,False,40.187603,{},2496.0,-105.08802,,,2700.0,,2700.0,,2804,False,CO,201 Pikes Peak Pl,537900.0,490664000,529100,80504,13204531
1.0,3.0,Longmont,USA,USD,,0,FOR_RENT,FOR_RENT,SINGLE_FAMILY,https://photos.zillowstatic.com/fp/7b05f309510298a0e76a33f2b178b1b7-p_e.jpg,True,True,False,False,False,False,False,False,40.169785,{},1498.0,-105.10733,,,2250.0,,2250.0,,2738,False,CO,623 Pratt St,537100.0,198872000,584100,80501,13206326
1.0,1.0,Longmont,USA,USD,,6,FOR_RENT,FOR_RENT,SINGLE_FAMILY,https://photos.zillowstatic.com/fp/514db17f925acbb2feb43f42d9474e93-p_e.jpg,True,True,False,False,False,False,False,False,40.14221,{},500.0,-105.11156,,,1700.0,,1700.0,,1519,False,CO,1159 Lefthand Dr,554700.0,542248000,571000,80501,13208860
2.0,3.0,Longmont,USA,USD,,0,FOR_RENT,FOR_RENT,SINGLE_FAMILY,https://photos.zillowstatic.com/fp/5535323407033eaef5a063d6ec45b443-p_e.jpg,True,True,False,False,False,False,False,False,40.197365,{},896.0,-105.122215,,,1950.0,,1950.0,,2010,False,CO,2116 Hackberry Cir,424500.0,109638000,428900,80501,13231770
2.0,3.0,Longmont,USA,USD,,0,FOR_RENT,FOR_RENT,SINGLE_FAMILY,https://photos.zillowstatic.com/fp/6cbbc4b955bda57ecd018aaeab5fb167-p_e.jpg,True,True,False,False,False,False,False,False,40.15697,{},1812.0,-105.06109,,,2600.0,,2600.0,,2784,False,CO,311 Cattail Ct,537400.0,831958000,524700,80501,54990614
1.0,4.0,Longmont,USA,USD,,0,FOR_RENT,FOR_RENT,SINGLE_FAMILY,https://photos.zillowstatic.com/fp/28b3bfc5b8aa85ddd79b645903b8af8f-p_e.jpg,True,True,False,False,False,False,False,False,40.171825,{},1400.0,-105.10339,,,2595.0,,2595.0,,2471,False,CO,728 Coffman St,386400.0,2642385000,436200,80501,13207278
2.0,3.0,Longmont,USA,USD,,0,FOR_RENT,FOR_RENT,SINGLE_FAMILY,https://photos.zillowstatic.com/fp/baa8fdcd198a005a740266998e274d78-p_e.jpg,True,True,False,False,False,False,False,False,40.201767,{},2100.0,-105.118805,,,2600.0,,2600.0,,2829,False,CO,1525 Peterson Pl,508800.0,801957000,503700,80501,13220894
1.0,2.0,Longmont,USA,USD,1739001600000,0,FOR_RENT,FOR_RENT,SINGLE_FAMILY,https://photos.zillowstatic.com/fp/304d2f4863c4660ca0ffdeeaafbfa6a9-p_e.jpg,True,True,False,False,False,False,False,False,40.18586,{},784.0,-105.09557,,,1875.0,-125,1875.0,$125 (Feb 8),,False,CO,111 Valentine Ln,,2258904000,378900,80501,434774652
3.0,2.0,Longmont,USA,USD,1738310400000,0,FOR_RENT,FOR_RENT,SINGLE_FAMILY,https://photos.zillowstatic.com/fp/63768b722bbd684b81c3557c79e469d3-p_e.jpg,True,True,False,False,False,False,False,False,40.143963,{},1305.0,-105.094444,sqft,2178.0,2545.0,-55,2545.0,$55 (Jan 31),2493,False,CO,1208 Hummingbird Cir,533700.0,2384352000,476500,80501,299288925
1.0,2.0,Longmont,USA,USD,,0,FOR_RENT,FOR_RENT,SINGLE_FAMILY,https://photos.zillowstatic.com/fp/eb9c1da87b5a230c6c1b7e61da75d910-p_e.jpg,False,True,False,False,False,False,False,False,40.184357,{},813.0,-105.09064,,,1725.0,,1725.0,,1706,False,CO,1452 Lamplighter Dr,,845481000,361600,80504,2080491525
2.0,2.0,Longmont,USA,USD,,0,FOR_RENT,FOR_RENT,SINGLE_FAMILY,https://photos.zillowstatic.com/fp/b43ca6f8a01b940ce49df33e5bfc2afb-p_e.jpg,False,True,False,False,False,False,False,False,40.20223,{},1497.0,-105.11077,,,2500.0,,2500.0,,2359,False,CO,2425 Gay St,470900.0,718962000,461100,80501,13224775
3.0,3.0,Longmont,USA,USD,,0,FOR_RENT,FOR_RENT,SINGLE_FAMILY,https://photos.zillowstatic.com/fp/73e046ef27580f34b283ca023d5df9dd-p_e.jpg,False,True,False,False,False,False,False,False,40.184566,{},1552.0,-105.07243,,,2700.0,,2700.0,,2722,False,CO,1018 Red Oak Dr,542500.0,898889000,553900,80504,13254474
3.0,3.0,Longmont,USA,USD,,0,FOR_RENT,FOR_RENT,SINGLE_FAMILY,https://photos.zillowstatic.com/fp/39523ba7035105bf3284183bcc3f3ac4-p_e.jpg,False,True,False,False,False,False,False,False,40.15448,{},1561.0,-104.988815,,,2475.0,,2475.0,,2120,False,CO,10576 Butte Dr,464171.0,774857000,470700,80504,61465657
3.0,4.0,Longmont,USA,USD,,0,FOR_RENT,FOR_RENT,SINGLE_FAMILY,https://photos.zillowstatic.com/fp/8582cbdf9a8ce08fdbbc5bbb10a3565f-p_e.jpg,False,True,False,False,False,False,False,False,40.181103,{},2432.0,-105.109276,,,2450.0,,2450.0,,2279,False,CO,1251 Bross St,448700.0,989983000,543900,80501,13202251
1.0,2.0,Longmont,USA,USD,,0,FOR_RENT,FOR_RENT,SINGLE_FAMILY,https://photos.zillowstatic.com/fp/fd9a903d72e1038999b6cfb5bf460107-p_e.jpg,False,True,False,False,False,False,False,False,40.171383,{},946.0,-105.12094,,,1850.0,,1850.0,,1882,False,CO,726 Sunset St,389000.0,919192000,420900,80501,13204361
2.0,5.0,Longmont,USA,USD,,0,FOR_RENT,FOR_RENT,SINGLE_FAMILY,https://photos.zillowstatic.com/fp/d190d87e3edbd84b83dde30c12a76141-p_e.jpg,False,True,False,False,False,False,False,False,40.173077,{},1402.0,-105.122765,,,2599.0,,2599.0,,2550,False,CO,840 Faith Ct,556700.0,3860962000,542100,80501,13204708
1.0,2.0,Longmont,USA,USD,,0,FOR_RENT,FOR_RENT,SINGLE_FAMILY,https://photos.zillowstatic.com/fp/4d8c77d71f7241ea05491ccda1004d0b-p_e.jpg,False,True,False,False,False,False,False,False,40.174713,{},1109.0,-105.105316,sqft,4822.0,2500.0,,2500.0,,2111,False,CO,915 Terry St,375600.0,1274389000,462700,80501,13207209
1.0,3.0,Longmont,USA,USD,,0,FOR_RENT,FOR_RENT,SINGLE_FAMILY,https://photos.zillowstatic.com/fp/66e7f40a07323d5e5ee9ee2e66ba4018-p_e.jpg,False,True,False,False,False,False,False,False,40.171238,{},1460.0,-105.118546,,,2650.0,,2650.0,,2144,False,CO,722 Vivian St,513600.0,1497526000,511400,80501,13201418
1.0,3.0,Longmont,USA,USD,,0,FOR_RENT,FOR_RENT,SINGLE_FAMILY,https://photos.zillowstatic.com/fp/b0eaa6ffa1ac4ccf4c06aed565d7d3f0-p_e.jpg,False,True,False,False,False,False,False,False,40.17873,{},960.0,-105.11549,,,2095.0,,2095.0,,2058,False,CO,1135 Sherman St,395400.0,829887000,401100,80501,13204947
2.0,3.0,Longmont,USA,USD,,0,FOR_RENT,FOR_RENT,SINGLE_FAMILY,https://photos.zillowstatic.com/fp/6ed8887d4d6f7eb17518835e26bc7af7-p_e.jpg,False,True,False,False,False,False,False,False,40.182564,{},,-105.111565,,,2195.0,,2195.0,,2169,False,CO,1335 Venice St,392000.0,1168186000,430900,80501,13201776
