[
  {
    "address": "4511 N Valerie Pl, Phoenix, AZ",
    "price": 2595.0,
    "beds": 3.0,
    "baths": 2.0,
    "sqft": 1452.0,
    "year_built": "N/A",
    "description": "",
    "url": "https://www.zillow.com/homedetails/7770088_zpid/",
    "location": "Phoenix, AZ",
    "list_date": 87730000,
    "primary_photo": "https://photos.zillowstatic.com/fp/bbd7c9dc8ee4be0676c937bf9fd226fb-p_e.jpg",
    "alt_photos": [],
    "latitude": 33.502563,
    "longitude": -112.07734
  },
  {
    "address": "7954 W Indianola Ave, Phoenix, AZ",
    "price": 1850.0,
    "beds": 5.0,
    "baths": 3.0,
    "sqft": 1905.0,
    "year_built": "N/A",
    "description": "",
    "url": "https://www.zillow.com/homedetails/7478757_zpid/",
    "location": "Phoenix, AZ",
    "list_date": 64582000,
    "primary_photo": "https://photos.zillowstatic.com/fp/e6afa12b8ac054b70855bc6617a3b34e-p_e.jpg",
    "alt_photos": [],
    "latitude": 33.49156,
    "longitude": -112.230934
  },
  {
    "address": "1601 W Roma Ave, Phoenix, AZ",
    "price": 2300.0,
    "beds": 2.0,
    "baths": 2.0,
    "sqft": 1029.0,
    "year_built": "N/A",
    "description": "",
    "url": "https://www.zillow.com/homedetails/7771895_zpid/",
    "location": "Phoenix, AZ",
    "list_date": 2329968000,
    "primary_photo": "https://photos.zillowstatic.com/fp/b7506fe0b7c92a6e2c352d1936a6ea2d-p_e.jpg",
    "alt_photos": [],
    "latitude": 33.501,
    "longitude": -112.09365
  },
  {
    "address": "318 W Glenrosa Ave, Phoenix, AZ",
    "price": 2395.0,
    "beds": 2.0,
    "baths": 1.0,
    "sqft": 1600.0,
    "year_built": "N/A",
    "description": "",
    "url": "https://www.zillow.com/homedetails/7770416_zpid/",
    "location": "Phoenix, AZ",
    "list_date": 1197238000,
    "primary_photo": "https://photos.zillowstatic.com/fp/0c6023ed36ac1c7ddb465ad25dca4c11-p_e.jpg",
    "alt_photos": [],
    "latitude": 33.498703,
    "longitude": -112.07897
  },
  {
    "address": "3324 W Krall St, Phoenix, AZ",
    "price": 2395.0,
    "beds": 3.0,
    "baths": 2.0,
    "sqft": 1578.0,
    "year_built": "N/A",
    "description": "",
    "url": "https://www.zillow.com/homedetails/7760679_zpid/",
    "location": "Phoenix, AZ",
    "list_date": 9357701000,
    "primary_photo": "https://photos.zillowstatic.com/fp/1e1460b522cbd350ef973dd79fdee118-p_e.jpg",
    "alt_photos": [],
    "latitude": 33.534267,
    "longitude": -112.13098
  },
  {
    "address": "2247 W Wethersfield Rd, Phoenix, AZ",
    "price": 1999.0,
    "beds": 3.0,
    "baths": 2.0,
    "sqft": 1334.0,
    "year_built": "N/A",
    "description": "",
    "url": "https://www.zillow.com/homedetails/7738663_zpid/",
    "location": "Phoenix, AZ",
    "list_date": 940514000,
    "primary_photo": "https://photos.zillowstatic.com/fp/8a4fddb2fe9f52e7ff0f8c0ab57e9e52-p_e.jpg",
    "alt_photos": [],
    "latitude": 33.59705,
    "longitude": -112.107574
  },
  {
    "address": "12835 N 23rd St, Phoenix, AZ",
    "price": 1899.0,
    "beds": 2.0,
    "baths": 1.0,
    "sqft": 859.0,
    "year_built": "N/A",
    "description": "",
    "url": "https://www.zillow.com/homedetails/7815647_zpid/",
    "location": "Phoenix, AZ",
    "list_date": 37000000,
    "primary_photo": "https://photos.zillowstatic.com/fp/024864953d1ef0a6bd401ec408d19056-p_e.jpg",
    "alt_photos": [],
    "latitude": 33.60365,
    "longitude": -112.03173
  },
  {
    "address": "5928 S 25th Dr, Phoenix, AZ",
    "price": 2250.0,
    "beds": 3.0,
    "baths": 2.0,
    "sqft": 1411.0,
    "year_built": "N/A",
    "description": "",
    "url": "https://www.zillow.com/homedetails/338668327_zpid/",
    "location": "Phoenix, AZ",
    "list_date": 64575000,
    "primary_photo": "https://photos.zillowstatic.com/fp/1dca6d4b46f8a8ec6fc2c0102c10fb8a-p_e.jpg",
    "alt_photos": [],
    "latitude": 33.39271,
    "longitude": -112.11278
  },
  {
    "address": "6202 W Windsor Ave, Phoenix, AZ",
    "price": 1795.0,
    "beds": 4.0,
    "baths": 2.0,
    "sqft": 1552.0,
    "year_built": "N/A",
    "description": "",
    "url": "https://www.zillow.com/homedetails/7491662_zpid/",
    "location": "Phoenix, AZ",
    "list_date": 64553000,
    "primary_photo": "https://photos.zillowstatic.com/fp/9f23e4b5b00f80dbf168b86d5c30582c-p_e.jpg",
    "alt_photos": [],
    "latitude": 33.478508,
    "longitude": -112.19357
  },
  {
    "address": "7039 S 45th Pl, Phoenix, AZ",
    "price": 1895.0,
    "beds": 4.0,
    "baths": 2.0,
    "sqft": 1597.0,
    "year_built": "N/A",
    "description": "",
    "url": "https://www.zillow.com/homedetails/7552494_zpid/",
    "location": "Phoenix, AZ",
    "list_date": 64551000,
    "primary_photo": "https://photos.zillowstatic.com/fp/777879ea7e74019dadcb820147995f2c-p_e.jpg",
    "alt_photos": [],
    "latitude": 33.38254,
    "longitude": -111.98365
  },
  {
    "address": "3625 W Caribbean Ln, Phoenix, AZ",
    "price": 1895.0,
    "beds": 3.0,
    "baths": 2.0,
    "sqft": 1080.0,
    "year_built": "N/A",
    "description": "",
    "url": "https://www.zillow.com/homedetails/7944372_zpid/",
    "location": "Phoenix, AZ",
    "list_date": 36559000,
    "primary_photo": "https://photos.zillowstatic.com/fp/14537478950a10cfe2d1ef92e71ab581-p_e.jpg",
    "alt_photos": [],
    "latitude": 33.62419,
    "longitude": -112.13708
  },
  {
    "address": "2365 W Sleepy Ranch Rd, Phoenix, AZ",
    "price": 2248.0,
    "beds": 3.0,
    "baths": 3.0,
    "sqft": 1882.0,
    "year_built": "N/A",
    "description": "",
    "url": "https://www.zillow.com/homedetails/71598568_zpid/",
    "location": "Phoenix, AZ",
    "list_date": 64944000,
    "primary_photo": "https://photos.zillowstatic.com/fp/fe796564fac1f2aeafeb4f39d671d4ad-p_e.jpg",
    "alt_photos": [],
    "latitude": 33.77757,
    "longitude": -112.110435
  },
  {
    "address": "1320 E Palo Verde Dr, Phoenix, AZ",
    "price": 2550.0,
    "beds": 3.0,
    "baths": 2.0,
    "sqft": 1516.0,
    "year_built": "N/A",
    "description": "",
    "url": "https://www.zillow.com/homedetails/7799639_zpid/",
    "location": "Phoenix, AZ",
    "list_date": 123074000,
    "primary_photo": "https://photos.zillowstatic.com/fp/7bd56c468a13558ae2abb6403b39aced-p_e.jpg",
    "alt_photos": [],
    "latitude": 33.522846,
    "longitude": -112.05258
  },
  {
    "address": "27709 N 23rd Dr, Phoenix, AZ",
    "price": 2350.0,
    "beds": 4.0,
    "baths": 3.0,
    "sqft": 2045.0,
    "year_built": "N/A",
    "description": "",
    "url": "https://www.zillow.com/homedetails/55265753_zpid/",
    "location": "Phoenix, AZ",
    "list_date": 150571000,
    "primary_photo": "https://photos.zillowstatic.com/fp/e821c875622c4284c85cbe59e5aa93a9-p_e.jpg",
    "alt_photos": [],
    "latitude": 33.73615,
    "longitude": -112.10851
  },
  {
    "address": "3230 E Wahalla Ln, Phoenix, AZ",
    "price": 2645.0,
    "beds": 3.0,
    "baths": 3.0,
    "sqft": 1499.0,
    "year_built": "N/A",
    "description": "",
    "url": "https://www.zillow.com/homedetails/7992737_zpid/",
    "location": "Phoenix, AZ",
    "list_date": 175847000,
    "primary_photo": "https://photos.zillowstatic.com/fp/dee29df4a07d78ae45c448d0ae581c40-p_e.jpg",
    "alt_photos": [],
    "latitude": 33.66796,
    "longitude": -112.01251
  },
  {
    "address": "31023 N 44th Pl, Cave Creek, AZ",
    "price": 2600.0,
    "beds": 3.0,
    "baths": 2.0,
    "sqft": 1810.0,
    "year_built": "N/A",
    "description": "",
    "url": "https://www.zillow.com/homedetails/7978912_zpid/",
    "location": "Cave Creek, AZ",
    "list_date": 3015826000,
    "primary_photo": "https://photos.zillowstatic.com/fp/2e4a164d20fe3ed29a30c1802cc6631d-p_e.jpg",
    "alt_photos": [],
    "latitude": 33.767296,
    "longitude": -111.98576
  },
  {
    "address": "121 W Latona Rd, Phoenix, AZ",
    "price": 2450.0,
    "beds": 3.0,
    "baths": 2.0,
    "sqft": 1388.0,
    "year_built": "N/A",
    "description": "",
    "url": "https://www.zillow.com/homedetails/443835601_zpid/",
    "location": "Phoenix, AZ",
    "list_date": 2701921000,
    "primary_photo": "https://photos.zillowstatic.com/fp/a79bc9983c676fc30f3703bdfca7aa4a-p_e.jpg",
    "alt_photos": [],
    "latitude": 33.372295,
    "longitude": -112.07597
  },
  {
    "address": "12643 N 34th St, Phoenix, AZ",
    "price": 2700.0,
    "beds": 3.0,
    "baths": 2.0,
    "sqft": 1545.0,
    "year_built": "N/A",
    "description": "",
    "url": "https://www.zillow.com/homedetails/7814535_zpid/",
    "location": "Phoenix, AZ",
    "list_date": 2421067000,
    "primary_photo": "https://photos.zillowstatic.com/fp/cd662e599b8d9b86c2625496e8b4f14f-p_e.jpg",
    "alt_photos": [],
    "latitude": 33.602486,
    "longitude": -112.0086
  },
  {
    "address": "3426 E Captain Dreyfus Ave, Phoenix, AZ",
    "price": 2699.0,
    "beds": 4.0,
    "baths": 3.0,
    "sqft": 1855.0,
    "year_built": "N/A",
    "description": "",
    "url": "https://www.zillow.com/homedetails/95099960_zpid/",
    "location": "Phoenix, AZ",
    "list_date": 183238000,
    "primary_photo": "https://photos.zillowstatic.com/fp/97f68afa120842ff8479e96c8245aa4d-p_e.jpg",
    "alt_photos": [],
    "latitude": 33.605064,
    "longitude": -112.00788
  },
  {
    "address": "4316 N 34th Dr, Phoenix, AZ",
    "price": 2299.0,
    "beds": 3.0,
    "baths": 2.0,
    "sqft": 1118.0,
    "year_built": "N/A",
    "description": "",
    "url": "https://www.zillow.com/homedetails/7768276_zpid/",
    "location": "Phoenix, AZ",
    "list_date": 269806000,
    "primary_photo": "https://photos.zillowstatic.com/fp/6623b7b702ec17dd168f3ca3e385c765-p_e.jpg",
    "alt_photos": [],
    "latitude": 33.4992,
    "longitude": -112.133606
  },
  {
    "address": "1132 E Georgia Ave, Phoenix, AZ",
    "price": 2700.0,
    "beds": 3.0,
    "baths": 2.0,
    "sqft": 1450.0,
    "year_built": "N/A",
    "description": "",
    "url": "https://www.zillow.com/homedetails/7800606_zpid/",
    "location": "Phoenix, AZ",
    "list_date": 264248000,
    "primary_photo": "https://photos.zillowstatic.com/fp/4937e404dc07d76c524a5a3d1bbfdaa7-p_e.jpg",
    "alt_photos": [],
    "latitude": 33.514824,
    "longitude": -112.05708
  }
]