[
  {
    "address": "8240 N 27th Ave, Phoenix, AZ",
    "price": 1800.0,
    "beds": 2.0,
    "baths": 1.0,
    "sqft": 852.0,
    "year_built": "N/A",
    "description": "",
    "url": "https://www.zillow.com/homedetails/7750928_zpid/",
    "location": "Phoenix, AZ",
    "list_date": 58357000,
    "primary_photo": "https://photos.zillowstatic.com/fp/8807b519013bad39b67bdae42d54e490-p_e.jpg",
    "alt_photos": [],
    "latitude": 33.5582,
    "longitude": -112.11724
  },
  {
    "address": "18205 N 11th Dr, Phoenix, AZ",
    "price": 2000.0,
    "beds": 3.0,
    "baths": 2.0,
    "sqft": 1301.0,
    "year_built": "N/A",
    "description": "",
    "url": "https://www.zillow.com/homedetails/7957059_zpid/",
    "location": "Phoenix, AZ",
    "list_date": 171817000,
    "primary_photo": "https://photos.zillowstatic.com/fp/2b206d897e86f57d65272e9a94752fac-p_e.jpg",
    "alt_photos": [],
    "latitude": 33.651318,
    "longitude": -112.087494
  },
  {
    "address": "4511 N Valerie Pl, Phoenix, AZ",
    "price": 2495.0,
    "beds": 3.0,
    "baths": 2.0,
    "sqft": 1452.0,
    "year_built": "N/A",
    "description": "",
    "url": "https://www.zillow.com/homedetails/7770088_zpid/",
    "location": "Phoenix, AZ",
    "list_date": 479355000,
    "primary_photo": "https://photos.zillowstatic.com/fp/bbd7c9dc8ee4be0676c937bf9fd226fb-p_e.jpg",
    "alt_photos": [],
    "latitude": 33.502563,
    "longitude": -112.07734
  },
  {
    "address": "3324 W Krall St, Phoenix, AZ",
    "price": 2395.0,
    "beds": 3.0,
    "baths": 2.0,
    "sqft": 1578.0,
    "year_built": "N/A",
    "description": "",
    "url": "https://www.zillow.com/homedetails/7760679_zpid/",
    "location": "Phoenix, AZ",
    "list_date": 9749326000,
    "primary_photo": "https://photos.zillowstatic.com/fp/1e1460b522cbd350ef973dd79fdee118-p_e.jpg",
    "alt_photos": [],
    "latitude": 33.534267,
    "longitude": -112.13098
  },
  {
    "address": "1601 W Roma Ave, Phoenix, AZ",
    "price": 2200.0,
    "beds": 2.0,
    "baths": 2.0,
    "sqft": 1029.0,
    "year_built": "N/A",
    "description": "",
    "url": "https://www.zillow.com/homedetails/7771895_zpid/",
    "location": "Phoenix, AZ",
    "list_date": 2721593000,
    "primary_photo": "https://photos.zillowstatic.com/fp/22ff02ecae99658f84c90e3608081aba-p_e.jpg",
    "alt_photos": [],
    "latitude": 33.501,
    "longitude": -112.09365
  },
  {
    "address": "2247 W Wethersfield Rd, Phoenix, AZ",
    "price": 1999.0,
    "beds": 3.0,
    "baths": 2.0,
    "sqft": 1334.0,
    "year_built": "N/A",
    "description": "",
    "url": "https://www.zillow.com/homedetails/7738663_zpid/",
    "location": "Phoenix, AZ",
    "list_date": 1332139000,
    "primary_photo": "https://photos.zillowstatic.com/fp/8a4fddb2fe9f52e7ff0f8c0ab57e9e52-p_e.jpg",
    "alt_photos": [],
    "latitude": 33.59705,
    "longitude": -112.107574
  },
  {
    "address": "10127 W Orange Dr, Glendale, AZ",
    "price": 2295.0,
    "beds": 4.0,
    "baths": 2.0,
    "sqft": 1750.0,
    "year_built": "N/A",
    "description": "",
    "url": "https://www.zillow.com/homedetails/67081681_zpid/",
    "location": "Glendale, AZ",
    "list_date": 26548000,
    "primary_photo": "https://photos.zillowstatic.com/fp/a9d94193d0f71275f5aeb0826a0980e0-p_e.jpg",
    "alt_photos": [],
    "latitude": 33.511326,
    "longitude": -112.277725
  },
  {
    "address": "5329 W Marcus Dr, Phoenix, AZ",
    "price": 1950.0,
    "beds": 2.0,
    "baths": 3.0,
    "sqft": 1307.0,
    "year_built": "N/A",
    "description": "",
    "url": "https://www.zillow.com/homedetails/81988299_zpid/",
    "location": "Phoenix, AZ",
    "list_date": 56067000,
    "primary_photo": "https://photos.zillowstatic.com/fp/61b1ccab1e8f6110c4941c47719a36a9-p_e.jpg",
    "alt_photos": [],
    "latitude": 33.723434,
    "longitude": -112.17478
  },
  {
    "address": "6050 N Calle Mio, Phoenix, AZ",
    "price": 2495.0,
    "beds": 2.0,
    "baths": 2.0,
    "sqft": 1837.0,
    "year_built": "N/A",
    "description": "",
    "url": "https://www.zillow.com/homedetails/7797869_zpid/",
    "location": "Phoenix, AZ",
    "list_date": 56454000,
    "primary_photo": "https://photos.zillowstatic.com/fp/0fc165d58d2fb54345ac52b9ef6afc8d-p_e.jpg",
    "alt_photos": [],
    "latitude": 33.525467,
    "longitude": -112.059395
  },
  {
    "address": "318 W Glenrosa Ave, Phoenix, AZ",
    "price": 2395.0,
    "beds": 2.0,
    "baths": 1.0,
    "sqft": 1600.0,
    "year_built": "N/A",
    "description": "",
    "url": "https://www.zillow.com/homedetails/7770416_zpid/",
    "location": "Phoenix, AZ",
    "list_date": 1588863000,
    "primary_photo": "https://photos.zillowstatic.com/fp/0c6023ed36ac1c7ddb465ad25dca4c11-p_e.jpg",
    "alt_photos": [],
    "latitude": 33.498703,
    "longitude": -112.07897
  },
  {
    "address": "20802 N 7th Pl, Phoenix, AZ",
    "price": 2600.0,
    "beds": 3.0,
    "baths": 2.0,
    "sqft": 1250.0,
    "year_built": "N/A",
    "description": "",
    "url": "https://www.zillow.com/homedetails/7991038_zpid/",
    "location": "Phoenix, AZ",
    "list_date": 112525000,
    "primary_photo": "https://photos.zillowstatic.com/fp/072391a75b8f721d91c7a815d0991387-p_e.jpg",
    "alt_photos": [],
    "latitude": 33.674088,
    "longitude": -112.06527
  },
  {
    "address": "25776 N 20th Ln, Phoenix, AZ",
    "price": 2600.0,
    "beds": 3.0,
    "baths": 3.0,
    "sqft": 1928.0,
    "year_built": "N/A",
    "description": "",
    "url": "https://www.zillow.com/homedetails/284865931_zpid/",
    "location": "Phoenix, AZ",
    "list_date": 113325000,
    "primary_photo": "https://photos.zillowstatic.com/fp/20005565a94c98458924bbbd91ac076e-p_e.jpg",
    "alt_photos": [],
    "latitude": 33.720127,
    "longitude": -112.106476
  },
  {
    "address": "2127 E Nighthawk Way, Phoenix, AZ",
    "price": 2450.0,
    "beds": 3.0,
    "baths": 3.0,
    "sqft": 1755.0,
    "year_built": "N/A",
    "description": "",
    "url": "https://www.zillow.com/homedetails/8257297_zpid/",
    "location": "Phoenix, AZ",
    "list_date": 116777000,
    "primary_photo": "https://photos.zillowstatic.com/fp/0590131aeac43f9ecc6da2ddf04c8979-p_e.jpg",
    "alt_photos": [],
    "latitude": 33.29505,
    "longitude": -112.036934
  },
  {
    "address": "7433 W Elwood St, Phoenix, AZ",
    "price": 2100.0,
    "beds": 3.0,
    "baths": 2.0,
    "sqft": 1493.0,
    "year_built": "N/A",
    "description": "",
    "url": "https://www.zillow.com/homedetails/54950276_zpid/",
    "location": "Phoenix, AZ",
    "list_date": 115545000,
    "primary_photo": "https://photos.zillowstatic.com/fp/74978c460e7fff42137f123bbb77f2ee-p_e.jpg",
    "alt_photos": [],
    "latitude": 33.41498,
    "longitude": -112.22055
  },
  {
    "address": "1327 E Muriel Dr, Phoenix, AZ",
    "price": 2080.0,
    "beds": 3.0,
    "baths": 2.0,
    "sqft": 1302.0,
    "year_built": "N/A",
    "description": "",
    "url": "https://www.zillow.com/homedetails/8003117_zpid/",
    "location": "Phoenix, AZ",
    "list_date": 246611000,
    "primary_photo": "https://photos.zillowstatic.com/fp/645f79fd7a6188252ad3961d7f40d8b6-p_e.jpg",
    "alt_photos": [],
    "latitude": 33.646156,
    "longitude": -112.05409
  },
  {
    "address": "2846 W Villa Rita Dr, Phoenix, AZ",
    "price": 2699.0,
    "beds": 5.0,
    "baths": 3.0,
    "sqft": 2400.0,
    "year_built": "N/A",
    "description": "",
    "url": "https://www.zillow.com/homedetails/7940842_zpid/",
    "location": "Phoenix, AZ",
    "list_date": 109562000,
    "primary_photo": "https://photos.zillowstatic.com/fp/eb858f254dbaa0fe7dd1532fc1233c14-p_e.jpg",
    "alt_photos": [],
    "latitude": 33.65054,
    "longitude": -112.1212
  },
  {
    "address": "1924 W Tonto St, Phoenix, AZ",
    "price": 2595.0,
    "beds": 4.0,
    "baths": 3.0,
    "sqft": 1350.0,
    "year_built": "N/A",
    "description": "",
    "url": "https://www.zillow.com/homedetails/7515765_zpid/",
    "location": "Phoenix, AZ",
    "list_date": 171337000,
    "primary_photo": "https://photos.zillowstatic.com/fp/0c99042620554415c74a2a10b7199ccc-p_e.jpg",
    "alt_photos": [],
    "latitude": 33.43881,
    "longitude": -112.10102
  },
  {
    "address": "5717 S 21st Ter, Phoenix, AZ",
    "price": 1750.0,
    "beds": 2.0,
    "baths": 2.0,
    "sqft": 1041.0,
    "year_built": "N/A",
    "description": "",
    "url": "https://www.zillow.com/homedetails/71612704_zpid/",
    "location": "Phoenix, AZ",
    "list_date": 197092000,
    "primary_photo": "https://photos.zillowstatic.com/fp/f1da41aada20c1e3c5359b346ca5ee07-p_e.jpg",
    "alt_photos": [],
    "latitude": 33.394447,
    "longitude": -112.03479
  },
  {
    "address": "121 W Latona Rd, Phoenix, AZ",
    "price": 2450.0,
    "beds": 3.0,
    "baths": 2.0,
    "sqft": 1388.0,
    "year_built": "N/A",
    "description": "",
    "url": "https://www.zillow.com/homedetails/443835601_zpid/",
    "location": "Phoenix, AZ",
    "list_date": 3093546000,
    "primary_photo": "https://photos.zillowstatic.com/fp/a79bc9983c676fc30f3703bdfca7aa4a-p_e.jpg",
    "alt_photos": [],
    "latitude": 33.372295,
    "longitude": -112.07597
  }
]