[
  {
    "address": "1762 Ross Ave, Saint Paul, MN",
    "price": 1895.0,
    "beds": 3.0,
    "baths": 3.0,
    "sqft": 1500.0,
    "year_built": "N/A",
    "description": "",
    "url": "https://www.zillow.com/homedetails/2131561_zpid/",
    "location": "Saint Paul, MN",
    "list_date": 515507000,
    "primary_photo": "https://photos.zillowstatic.com/fp/09d28913879a775f1cf4ff62eb69deef-p_e.jpg",
    "alt_photos": [],
    "latitude": 44.965626,
    "longitude": -93.02612
  },
  {
    "address": "1002 Rondo Ave, Saint Paul, MN",
    "price": 2500.0,
    "beds": 5.0,
    "baths": 3.0,
    "sqft": 1900.0,
    "year_built": "N/A",
    "description": "",
    "url": "https://www.zillow.com/homedetails/444157119_zpid/",
    "location": "Saint Paul, MN",
    "list_date": 2557962000,
    "primary_photo": "https://photos.zillowstatic.com/fp/d0fb2db96af558050ba9497f60c9464f-p_e.jpg",
    "alt_photos": [],
    "latitude": 44.950954,
    "longitude": -93.14259
  },
  {
    "address": "1539 Birmingham St, Saint Paul, MN",
    "price": 1695.0,
    "beds": 3.0,
    "baths": 1.0,
    "sqft": 1536.0,
    "year_built": "N/A",
    "description": "",
    "url": "https://www.zillow.com/homedetails/2108188_zpid/",
    "location": "Saint Paul, MN",
    "list_date": 1175388000,
    "primary_photo": "https://photos.zillowstatic.com/fp/e2006b6c1558887dda3e11bc7fd0f8ac-p_e.jpg",
    "alt_photos": [],
    "latitude": 44.987724,
    "longitude": -93.04092
  },
  {
    "address": "980 Wilson Ave, Saint Paul, MN",
    "price": 2379.0,
    "beds": 4.0,
    "baths": 2.0,
    "sqft": 1696.0,
    "year_built": "N/A",
    "description": "",
    "url": "https://www.zillow.com/homedetails/2149086_zpid/",
    "location": "Saint Paul, MN",
    "list_date": 1870152000,
    "primary_photo": "https://photos.zillowstatic.com/fp/e845ca59e304225070b4b62ed482c883-p_e.jpg",
    "alt_photos": [],
    "latitude": 44.95384,
    "longitude": -93.059105
  },
  {
    "address": "705 Sims Ave, Saint Paul, MN",
    "price": 1906.0,
    "beds": 4.0,
    "baths": 1.0,
    "sqft": 1736.0,
    "year_built": "N/A",
    "description": "",
    "url": "https://www.zillow.com/homedetails/2138201_zpid/",
    "location": "Saint Paul, MN",
    "list_date": 1639827000,
    "primary_photo": "https://photos.zillowstatic.com/fp/514d8d0370edadb0b31fa77c0f198005-p_e.jpg",
    "alt_photos": [],
    "latitude": 44.96959,
    "longitude": -93.07065
  },
  {
    "address": "1649 York Ave, Saint Paul, MN",
    "price": 1995.0,
    "beds": 4.0,
    "baths": 2.0,
    "sqft": 1626.0,
    "year_built": "N/A",
    "description": "",
    "url": "https://www.zillow.com/homedetails/2131250_zpid/",
    "location": "Saint Paul, MN",
    "list_date": 2414759000,
    "primary_photo": "https://photos.zillowstatic.com/fp/4f89e4aa932af11f8f9f62e87f02a022-p_e.jpg",
    "alt_photos": [],
    "latitude": 44.968975,
    "longitude": -93.03089
  },
  {
    "address": "2155 Edgebrook Ave, Saint Paul, MN",
    "price": 2169.0,
    "beds": 3.0,
    "baths": 2.0,
    "sqft": 1176.0,
    "year_built": "N/A",
    "description": "",
    "url": "https://www.zillow.com/homedetails/2034391_zpid/",
    "location": "Saint Paul, MN",
    "list_date": 1682567000,
    "primary_photo": "https://photos.zillowstatic.com/fp/012b9ef101c57fc2faab4e47a0ac85c9-p_e.jpg",
    "alt_photos": [],
    "latitude": 44.93819,
    "longitude": -93.00912
  },
  {
    "address": "881 Grand Ave, Saint Paul, MN",
    "price": 2495.0,
    "beds": 4.0,
    "baths": 2.0,
    "sqft": 1200.0,
    "year_built": "N/A",
    "description": "",
    "url": "https://www.zillow.com/homedetails/112113071_zpid/",
    "location": "Saint Paul, MN",
    "list_date": 749106000,
    "primary_photo": "https://photos.zillowstatic.com/fp/67e52c2157b16a3d439dde8ac7992c35-p_e.jpg",
    "alt_photos": [],
    "latitude": 44.940277,
    "longitude": -93.137314
  },
  {
    "address": "1986 Pinehurst Ave, Saint Paul, MN",
    "price": 2700.0,
    "beds": 3.0,
    "baths": 2.0,
    "sqft": 1900.0,
    "year_built": "N/A",
    "description": "",
    "url": "https://www.zillow.com/homedetails/2090308_zpid/",
    "location": "Saint Paul, MN",
    "list_date": 1420208000,
    "primary_photo": "https://photos.zillowstatic.com/fp/6f7ad96dce31e0f3ccf3e225d6b44f58-p_e.jpg",
    "alt_photos": [],
    "latitude": 44.91862,
    "longitude": -93.18404
  },
  {
    "address": "449 Banfil St, Saint Paul, MN",
    "price": 1895.0,
    "beds": 3.0,
    "baths": 1.0,
    "sqft": 1500.0,
    "year_built": "N/A",
    "description": "",
    "url": "https://www.zillow.com/homedetails/2029249_zpid/",
    "location": "Saint Paul, MN",
    "list_date": 2519099000,
    "primary_photo": "https://photos.zillowstatic.com/fp/b2efdb06da4869c6fcdea1c7c9dbd45e-p_e.jpg",
    "alt_photos": [],
    "latitude": 44.93733,
    "longitude": -93.11909
  },
  {
    "address": "998 Euclid St, Saint Paul, MN",
    "price": 1875.0,
    "beds": 2.0,
    "baths": 2.0,
    "sqft": 1320.0,
    "year_built": "N/A",
    "description": "",
    "url": "https://www.zillow.com/homedetails/2149053_zpid/",
    "location": "Saint Paul, MN",
    "list_date": 3126116000,
    "primary_photo": "https://photos.zillowstatic.com/fp/3a19e339220da55bb01d395465ef597a-p_e.jpg",
    "alt_photos": [],
    "latitude": 44.954697,
    "longitude": -93.0585
  },
  {
    "address": "42 King St E, Saint Paul, MN",
    "price": 1995.0,
    "beds": 3.0,
    "baths": 2.0,
    "sqft": 1296.0,
    "year_built": "N/A",
    "description": "",
    "url": "https://www.zillow.com/homedetails/2057336_zpid/",
    "location": "Saint Paul, MN",
    "list_date": 2966760000,
    "primary_photo": "https://photos.zillowstatic.com/fp/4bc75e8ceb67e0e116e9e2d7b64fd4f7-p_e.jpg",
    "alt_photos": [],
    "latitude": 44.92777,
    "longitude": -93.08323
  },
  {
    "address": "2200 Margaret St, Saint Paul, MN",
    "price": 1675.0,
    "beds": 2.0,
    "baths": 1.0,
    "sqft": 1123.0,
    "year_built": "N/A",
    "description": "",
    "url": "https://www.zillow.com/homedetails/64823928_zpid/",
    "location": "Saint Paul, MN",
    "list_date": 1937897000,
    "primary_photo": "https://photos.zillowstatic.com/fp/50e0a9c9f558a81531c1834177c045f9-p_e.jpg",
    "alt_photos": [],
    "latitude": 44.96094,
    "longitude": -93.00531
  },
  {
    "address": "447 Banfil St, Saint Paul, MN",
    "price": 2595.0,
    "beds": 4.0,
    "baths": 2.0,
    "sqft": 1895.0,
    "year_built": "N/A",
    "description": "",
    "url": "https://www.zillow.com/homedetails/2029250_zpid/",
    "location": "Saint Paul, MN",
    "list_date": 7889986000,
    "primary_photo": "https://photos.zillowstatic.com/fp/d3b63b6a4262ec6c6e86287db619d3b7-p_e.jpg",
    "alt_photos": [],
    "latitude": 44.93733,
    "longitude": -93.118965
  },
  {
    "address": "1670 Sherburne Ave, Saint Paul, MN",
    "price": 1845.0,
    "beds": 3.0,
    "baths": 1.0,
    "sqft": 1124.0,
    "year_built": "N/A",
    "description": "",
    "url": "https://www.zillow.com/homedetails/2150471_zpid/",
    "location": "Saint Paul, MN",
    "list_date": 1357611000,
    "primary_photo": "https://photos.zillowstatic.com/fp/1d658a3b4cfe63d5e1d208d79cfb4420-p_e.jpg",
    "alt_photos": [],
    "latitude": 44.956333,
    "longitude": -93.17093
  },
  {
    "address": "1729 Minnehaha Ave E, Saint Paul, MN",
    "price": 2150.0,
    "beds": 4.0,
    "baths": 2.0,
    "sqft": 2300.0,
    "year_built": "N/A",
    "description": "",
    "url": "https://www.zillow.com/homedetails/2131616_zpid/",
    "location": "Saint Paul, MN",
    "list_date": 6791386000,
    "primary_photo": "https://photos.zillowstatic.com/fp/bf99003d843a918cb03e8d67250b315e-p_e.jpg",
    "alt_photos": [],
    "latitude": 44.96336,
    "longitude": -93.02733
  },
  {
    "address": "690 Dayton Ave, Saint Paul, MN",
    "price": 2395.0,
    "beds": 4.0,
    "baths": 2.0,
    "sqft": 1800.0,
    "year_built": "N/A",
    "description": "",
    "url": "https://www.zillow.com/homedetails/2034581_zpid/",
    "location": "Saint Paul, MN",
    "list_date": 2687681000,
    "primary_photo": "https://photos.zillowstatic.com/fp/056703c2d0a445b772617b733d557139-p_e.jpg",
    "alt_photos": [],
    "latitude": 44.947166,
    "longitude": -93.12933
  },
  {
    "address": "793 Lake St, Saint Paul, MN",
    "price": 2000.0,
    "beds": 3.0,
    "baths": 1.0,
    "sqft": 1110.0,
    "year_built": "N/A",
    "description": "",
    "url": "https://www.zillow.com/homedetails/2126795_zpid/",
    "location": "Saint Paul, MN",
    "list_date": 2907517000,
    "primary_photo": "https://photos.zillowstatic.com/fp/0f8e7c9f2e2a526c139db9d9f262afa3-p_e.jpg",
    "alt_photos": [],
    "latitude": 44.965282,
    "longitude": -93.00685
  },
  {
    "address": "1330 White Bear Ave N, Saint Paul, MN",
    "price": 1700.0,
    "beds": 3.0,
    "baths": 2.0,
    "sqft": 1400.0,
    "year_built": "N/A",
    "description": "",
    "url": "https://www.zillow.com/homedetails/185068243_zpid/",
    "location": "Saint Paul, MN",
    "list_date": 4776053000,
    "primary_photo": "https://photos.zillowstatic.com/fp/806a13cf6be2543d9abc62def9baef84-p_e.jpg",
    "alt_photos": [],
    "latitude": 44.98149,
    "longitude": -93.02489
  },
  {
    "address": "1395 Taylor Ave W, Saint Paul, MN",
    "price": 2450.0,
    "beds": 4.0,
    "baths": 2.0,
    "sqft": 2016.0,
    "year_built": "N/A",
    "description": "",
    "url": "https://www.zillow.com/homedetails/2068900695_zpid/",
    "location": "Saint Paul, MN",
    "list_date": 229122000,
    "primary_photo": "https://photos.zillowstatic.com/fp/d43d8f7b81c72b4c518c7d3f3dc9c8de-p_e.jpg",
    "alt_photos": [],
    "latitude": 44.968002,
    "longitude": -93.15932
  },
  {
    "address": "867 Snelling Ave N, Saint Paul, MN",
    "price": 2100.0,
    "beds": 4.0,
    "baths": 2.0,
    "sqft": "N/A",
    "year_built": "N/A",
    "description": "",
    "url": "https://www.zillow.com/homedetails/2089703711_zpid/",
    "location": "Saint Paul, MN",
    "list_date": 744280000,
    "primary_photo": "https://photos.zillowstatic.com/fp/187cdc35ae8ed799b426d2ebb5850bbc-p_e.jpg",
    "alt_photos": [],
    "latitude": 44.96721,
    "longitude": -93.16731
  },
  {
    "address": "824 Aldine St, Saint Paul, MN",
    "price": 1800.0,
    "beds": 4.0,
    "baths": 1.0,
    "sqft": 1891.0,
    "year_built": "N/A",
    "description": "",
    "url": "https://www.zillow.com/homedetails/2135885_zpid/",
    "location": "Saint Paul, MN",
    "list_date": 1423257000,
    "primary_photo": "https://photos.zillowstatic.com/fp/28414a55c2f493c2ab0f3090e0c1f332-p_e.jpg",
    "alt_photos": [],
    "latitude": 44.965908,
    "longitude": -93.17178
  },
  {
    "address": "1569 Stillwater Ave, Saint Paul, MN",
    "price": 2000.0,
    "beds": 3.0,
    "baths": 2.0,
    "sqft": 800.0,
    "year_built": "N/A",
    "description": "",
    "url": "https://www.zillow.com/homedetails/2131311_zpid/",
    "location": "Saint Paul, MN",
    "list_date": 2302813000,
    "primary_photo": "https://photos.zillowstatic.com/fp/142217ac3ffab2488540a7fc3f5c4610-p_e.jpg",
    "alt_photos": [],
    "latitude": 44.96803,
    "longitude": -93.03422
  },
  {
    "address": "865 Snelling Ave N, Saint Paul, MN",
    "price": 2000.0,
    "beds": 4.0,
    "baths": 2.0,
    "sqft": 2113.0,
    "year_built": "N/A",
    "description": "",
    "url": "https://www.zillow.com/homedetails/2135638_zpid/",
    "location": "Saint Paul, MN",
    "list_date": 6247914000,
    "primary_photo": "https://photos.zillowstatic.com/fp/d2bd4f6e08cd31df821dfbeec776f918-p_e.jpg",
    "alt_photos": [],
    "latitude": 44.9672,
    "longitude": -93.167496
  },
  {
    "address": "730 Holton St, Saint Paul, MN",
    "price": 2000.0,
    "beds": 4.0,
    "baths": 2.0,
    "sqft": 1821.0,
    "year_built": "N/A",
    "description": "",
    "url": "https://www.zillow.com/homedetails/2132218_zpid/",
    "location": "Saint Paul, MN",
    "list_date": 5658258000,
    "primary_photo": "https://photos.zillowstatic.com/fp/180d2f1ad0bbb43b171c227b052759c1-p_e.jpg",
    "alt_photos": [],
    "latitude": 44.963154,
    "longitude": -93.160446
  },
  {
    "address": "1053 Hatch Ave, Saint Paul, MN",
    "price": 1900.0,
    "beds": 3.0,
    "baths": 2.0,
    "sqft": 1330.0,
    "year_built": "N/A",
    "description": "",
    "url": "https://www.zillow.com/homedetails/2127696_zpid/",
    "location": "Saint Paul, MN",
    "list_date": 6006146000,
    "primary_photo": "https://photos.zillowstatic.com/fp/8fd4c40f238382d478a7de3adcf86aa3-p_e.jpg",
    "alt_photos": [],
    "latitude": 44.971558,
    "longitude": -93.14459
  },
  {
    "address": "1841 Sherwood Ave, Saint Paul, MN",
    "price": 2100.0,
    "beds": 2.0,
    "baths": 1.0,
    "sqft": 1000.0,
    "year_built": "N/A",
    "description": "",
    "url": "https://www.zillow.com/homedetails/2113621_zpid/",
    "location": "Saint Paul, MN",
    "list_date": 1607539000,
    "primary_photo": "https://photos.zillowstatic.com/fp/a0507ad159f50d001977328611800e2c-p_e.jpg",
    "alt_photos": [],
    "latitude": 44.984074,
    "longitude": -93.02248
  }
]