[
  {
    "address": "2738 Xanadu Street, Aurora, CO",
    "price": 450000.0,
    "beds": 4.0,
    "baths": 2.0,
    "sqft": 1950.0,
    "year_built": "N/A",
    "description": "",
    "url": "https://www.zillow.com/homedetails/13018782_zpid/",
    "location": "Aurora, CO",
    "list_date": 500619000,
    "primary_photo": "https://photos.zillowstatic.com/fp/900fb2f97c849f603dba3f3f23604f88-p_e.jpg",
    "alt_photos": [],
    "latitude": 39.75539,
    "longitude": -104.828674
  },
  {
    "address": "19430 E 58th Drive, Aurora, CO",
    "price": 450000.0,
    "beds": 3.0,
    "baths": 3.0,
    "sqft": 1406.0,
    "year_built": "N/A",
    "description": "",
    "url": "https://www.zillow.com/homedetails/49456385_zpid/",
    "location": "Aurora, CO",
    "list_date": 247431000,
    "primary_photo": "https://photos.zillowstatic.com/fp/d195449fec4941e0785e930ecea17a96-p_e.jpg",
    "alt_photos": [],
    "latitude": 39.803516,
    "longitude": -104.75655
  },
  {
    "address": "1665 S Victor Street, Aurora, CO",
    "price": 500000.0,
    "beds": 4.0,
    "baths": 3.0,
    "sqft": 2977.0,
    "year_built": "N/A",
    "description": "",
    "url": "https://www.zillow.com/homedetails/13049957_zpid/",
    "location": "Aurora, CO",
    "list_date": 56642000,
    "primary_photo": "https://photos.zillowstatic.com/fp/5fe57d7b2bac942b049b9d56197087e7-p_e.jpg",
    "alt_photos": [],
    "latitude": 39.6866,
    "longitude": -104.83464
  },
  {
    "address": "20112 E Grand Place, Aurora, CO",
    "price": 500000.0,
    "beds": 3.0,
    "baths": 3.0,
    "sqft": 2024.0,
    "year_built": "N/A",
    "description": "",
    "url": "https://www.zillow.com/homedetails/54645394_zpid/",
    "location": "Aurora, CO",
    "list_date": 681536000,
    "primary_photo": "https://photos.zillowstatic.com/fp/5b954015a9375328c0cbdf79970175d0-p_e.jpg",
    "alt_photos": [],
    "latitude": 39.625557,
    "longitude": -104.75353
  },
  {
    "address": "15895 E 17th Place, Aurora, CO",
    "price": 455000.0,
    "beds": 4.0,
    "baths": 2.0,
    "sqft": 1878.0,
    "year_built": "N/A",
    "description": "",
    "url": "https://www.zillow.com/homedetails/13012165_zpid/",
    "location": "Aurora, CO",
    "list_date": 1360183000,
    "primary_photo": "https://photos.zillowstatic.com/fp/caefd71ca98cc170381dba928c91e273-p_e.jpg",
    "alt_photos": [],
    "latitude": 39.74516,
    "longitude": -104.803154
  },
  {
    "address": "2515 S Pagosa Street, Aurora, CO",
    "price": 486500.0,
    "beds": 5.0,
    "baths": 3.0,
    "sqft": 2656.0,
    "year_built": "N/A",
    "description": "",
    "url": "https://www.zillow.com/homedetails/13077970_zpid/",
    "location": "Aurora, CO",
    "list_date": 73667273000,
    "primary_photo": "https://photos.zillowstatic.com/fp/b2c36808eeddd74608690551ba83ae06-p_e.jpg",
    "alt_photos": [],
    "latitude": 39.670452,
    "longitude": -104.78839
  },
  {
    "address": "3869 S Himalaya Way, Aurora, CO",
    "price": 454000.0,
    "beds": 3.0,
    "baths": 3.0,
    "sqft": 1591.0,
    "year_built": "N/A",
    "description": "",
    "url": "https://www.zillow.com/homedetails/13091737_zpid/",
    "location": "Aurora, CO",
    "list_date": 6194452000,
    "primary_photo": "https://photos.zillowstatic.com/fp/5f673ec70bc7a40d160217d35f66bd3d-p_e.jpg",
    "alt_photos": [],
    "latitude": 39.64626,
    "longitude": -104.753525
  },
  {
    "address": "1912 S Truckee Street, Aurora, CO",
    "price": 499000.0,
    "beds": 4.0,
    "baths": 3.0,
    "sqft": 2206.0,
    "year_built": "N/A",
    "description": "",
    "url": "https://www.zillow.com/homedetails/13077004_zpid/",
    "location": "Aurora, CO",
    "list_date": 805796000,
    "primary_photo": "https://photos.zillowstatic.com/fp/693a3594c82f5f0f122f2f5ef428704a-p_e.jpg",
    "alt_photos": [],
    "latitude": 39.68186,
    "longitude": -104.780525
  },
  {
    "address": "3854 S Olathe Circle, Aurora, CO",
    "price": 495000.0,
    "beds": 4.0,
    "baths": 2.0,
    "sqft": 1824.0,
    "year_built": "N/A",
    "description": "",
    "url": "https://www.zillow.com/homedetails/13098312_zpid/",
    "location": "Aurora, CO",
    "list_date": 559129000,
    "primary_photo": "https://photos.zillowstatic.com/fp/77cbed5ce23e08f96efcd25bb6a63181-p_e.jpg",
    "alt_photos": [],
    "latitude": 39.647476,
    "longitude": -104.79396
  },
  {
    "address": "19873 E Vassar Avenue, Aurora, CO",
    "price": 450000.0,
    "beds": 3.0,
    "baths": 3.0,
    "sqft": 1680.0,
    "year_built": "N/A",
    "description": "",
    "url": "https://www.zillow.com/homedetails/13076566_zpid/",
    "location": "Aurora, CO",
    "list_date": 11248694000,
    "primary_photo": "https://photos.zillowstatic.com/fp/dd89af1f4a4f1e07bbc6aa35faeac34b-p_e.jpg",
    "alt_photos": [],
    "latitude": 39.670094,
    "longitude": -104.7568
  },
  {
    "address": "638 S Troy Street, Aurora, CO",
    "price": 500000.0,
    "beds": 4.0,
    "baths": 2.0,
    "sqft": 2307.0,
    "year_built": "N/A",
    "description": "",
    "url": "https://www.zillow.com/homedetails/13041511_zpid/",
    "location": "Aurora, CO",
    "list_date": 589134000,
    "primary_photo": "https://photos.zillowstatic.com/fp/b56aaadca9e0e4f18844e262458fb54e-p_e.jpg",
    "alt_photos": [],
    "latitude": 39.7026,
    "longitude": -104.83853
  },
  {
    "address": "3779 S Cathay Circle, Aurora, CO",
    "price": 480000.0,
    "beds": 4.0,
    "baths": 3.0,
    "sqft": 2231.0,
    "year_built": "N/A",
    "description": "",
    "url": "https://www.zillow.com/homedetails/13093693_zpid/",
    "location": "Aurora, CO",
    "list_date": 8850673000,
    "primary_photo": "https://photos.zillowstatic.com/fp/c0abd643ce373a03dbacb983a615094f-p_e.jpg",
    "alt_photos": [],
    "latitude": 39.648163,
    "longitude": -104.7655
  },
  {
    "address": "11002 E Ohio Place, Aurora, CO",
    "price": 450000.0,
    "beds": 3.0,
    "baths": 2.0,
    "sqft": 1192.0,
    "year_built": "N/A",
    "description": "",
    "url": "https://www.zillow.com/homedetails/13043396_zpid/",
    "location": "Aurora, CO",
    "list_date": 495514000,
    "primary_photo": "https://photos.zillowstatic.com/fp/3faa321d5baca12263bfc4d50d9928f4-p_e.jpg",
    "alt_photos": [],
    "latitude": 39.701443,
    "longitude": -104.859276
  },
  {
    "address": "695 S Oakland Street, Aurora, CO",
    "price": 499000.0,
    "beds": 4.0,
    "baths": 3.0,
    "sqft": 2557.0,
    "year_built": "N/A",
    "description": "",
    "url": "https://www.zillow.com/homedetails/13043910_zpid/",
    "location": "Aurora, CO",
    "list_date": 1450501000,
    "primary_photo": "https://photos.zillowstatic.com/fp/4e3ec28bcea062ad69658a5d442180e7-p_e.jpg",
    "alt_photos": [],
    "latitude": 39.703964,
    "longitude": -104.85126
  },
  {
    "address": "19556 E 58th Place, Aurora, CO",
    "price": 465000.0,
    "beds": 3.0,
    "baths": 3.0,
    "sqft": 1668.0,
    "year_built": "N/A",
    "description": "",
    "url": "https://www.zillow.com/homedetails/49456249_zpid/",
    "location": "Aurora, CO",
    "list_date": 2042958000,
    "primary_photo": "https://photos.zillowstatic.com/fp/a25b3c7e15b51be4223a768e76abf23f-p_e.jpg",
    "alt_photos": [],
    "latitude": 39.80211,
    "longitude": -104.76049
  },
  {
    "address": "1500 S Laredo Street, Aurora, CO",
    "price": 500000.0,
    "beds": 3.0,
    "baths": 3.0,
    "sqft": 2052.0,
    "year_built": "N/A",
    "description": "",
    "url": "https://www.zillow.com/homedetails/13071547_zpid/",
    "location": "Aurora, CO",
    "list_date": 1800592000,
    "primary_photo": "https://photos.zillowstatic.com/fp/65c6ec0de5282e4dcb47c653bff46de6-p_e.jpg",
    "alt_photos": [],
    "latitude": 39.687775,
    "longitude": -104.80063
  },
  {
    "address": "1051 Lima Street, Aurora, CO",
    "price": 474999.0,
    "beds": 5.0,
    "baths": 2.0,
    "sqft": 2236.0,
    "year_built": "N/A",
    "description": "",
    "url": "https://www.zillow.com/homedetails/13035150_zpid/",
    "location": "Aurora, CO",
    "list_date": 357507000,
    "primary_photo": "https://photos.zillowstatic.com/fp/71854ad2891b64e54b99ae3c7e0ee3b4-p_e.jpg",
    "alt_photos": [],
    "latitude": 39.73203,
    "longitude": -104.85632
  },
  {
    "address": "21382 E 60th Avenue, Aurora, CO",
    "price": 475000.0,
    "beds": 3.0,
    "baths": 3.0,
    "sqft": 2433.0,
    "year_built": "N/A",
    "description": "",
    "url": "https://www.zillow.com/homedetails/313208720_zpid/",
    "location": "Aurora, CO",
    "list_date": 5332185000,
    "primary_photo": "https://photos.zillowstatic.com/fp/cb80589b9568f433065ec174a28fcfb2-p_e.jpg",
    "alt_photos": [],
    "latitude": 39.80537,
    "longitude": -104.738266
  },
  {
    "address": "323 Fulton Street, Aurora, CO",
    "price": 470000.0,
    "beds": 5.0,
    "baths": 3.0,
    "sqft": 2325.0,
    "year_built": "N/A",
    "description": "",
    "url": "https://www.zillow.com/homedetails/13037391_zpid/",
    "location": "Aurora, CO",
    "list_date": 3270298000,
    "primary_photo": "https://photos.zillowstatic.com/fp/052628aec13330bea1dd94f62a63e2e7-p_e.jpg",
    "alt_photos": [],
    "latitude": 39.72046,
    "longitude": -104.87088
  },
  {
    "address": "4540 N Quemoy Street, Aurora, CO",
    "price": 495000.0,
    "beds": 3.0,
    "baths": 3.0,
    "sqft": 1932.0,
    "year_built": "N/A",
    "description": "",
    "url": "https://www.zillow.com/homedetails/2066659622_zpid/",
    "location": "Aurora, CO",
    "list_date": 24696898000,
    "primary_photo": "https://photos.zillowstatic.com/fp/c214a58fa4b101c8387df4010e7a34e4-p_e.jpg",
    "alt_photos": [],
    "latitude": 39.77858,
    "longitude": -104.73133
  },
  {
    "address": "1216 S Flat Rock Circle, Aurora, CO",
    "price": 455000.0,
    "beds": 3.0,
    "baths": 2.0,
    "sqft": 1306.0,
    "year_built": "N/A",
    "description": "",
    "url": "https://www.zillow.com/homedetails/58888445_zpid/",
    "location": "Aurora, CO",
    "list_date": 27698869000,
    "primary_photo": "https://photos.zillowstatic.com/fp/62d27751349847a9a159a62fd992255d-p_e.jpg",
    "alt_photos": [],
    "latitude": 39.69502,
    "longitude": -104.702866
  },
  {
    "address": "25934 E Maple Drive, Aurora, CO",
    "price": 469000.0,
    "beds": 3.0,
    "baths": 4.0,
    "sqft": 1439.0,
    "year_built": "N/A",
    "description": "",
    "url": "https://www.zillow.com/homedetails/99615371_zpid/",
    "location": "Aurora, CO",
    "list_date": 828895000,
    "primary_photo": "https://photos.zillowstatic.com/fp/de76a11992ef7dad57cf28affd3ddfa7-p_e.jpg",
    "alt_photos": [],
    "latitude": 39.71294,
    "longitude": -104.68511
  },
  {
    "address": "2551 S Carson Way, Aurora, CO",
    "price": 480000.0,
    "beds": 4.0,
    "baths": 4.0,
    "sqft": 2069.0,
    "year_built": "N/A",
    "description": "",
    "url": "https://www.zillow.com/homedetails/13081274_zpid/",
    "location": "Aurora, CO",
    "list_date": 415420000,
    "primary_photo": "https://photos.zillowstatic.com/fp/832b94baf9d19583df4d7f7a0cef8a5b-p_e.jpg",
    "alt_photos": [],
    "latitude": 39.67039,
    "longitude": -104.82358
  },
  {
    "address": "4663 S Buckley Way, Aurora, CO",
    "price": 498000.0,
    "beds": 4.0,
    "baths": 2.0,
    "sqft": 1457.0,
    "year_built": "N/A",
    "description": "",
    "url": "https://www.zillow.com/homedetails/13106959_zpid/",
    "location": "Aurora, CO",
    "list_date": 1409071000,
    "primary_photo": "https://photos.zillowstatic.com/fp/d67948e8f8ccca3130c404cc9d2ee89e-p_e.jpg",
    "alt_photos": [],
    "latitude": 39.631725,
    "longitude": -104.790794
  },
  {
    "address": "16812 E Mansfield Circle, Aurora, CO",
    "price": 480300.0,
    "beds": 4.0,
    "baths": 2.0,
    "sqft": 2240.0,
    "year_built": "N/A",
    "description": "",
    "url": "https://www.zillow.com/homedetails/13099677_zpid/",
    "location": "Aurora, CO",
    "list_date": 15949996000,
    "primary_photo": "https://photos.zillowstatic.com/fp/d093fd0d444d48ddb43236cc35309564-p_e.jpg",
    "alt_photos": [],
    "latitude": 39.645565,
    "longitude": -104.79232
  },
  {
    "address": "3161 S Kalispell Street, Aurora, CO",
    "price": 469000.0,
    "beds": 3.0,
    "baths": 2.0,
    "sqft": 1444.0,
    "year_built": "N/A",
    "description": "",
    "url": "https://www.zillow.com/homedetails/13085071_zpid/",
    "location": "Aurora, CO",
    "list_date": 654830000,
    "primary_photo": "https://photos.zillowstatic.com/fp/b8a3a416f65f332371e9afab01299727-p_e.jpg",
    "alt_photos": [],
    "latitude": 39.657867,
    "longitude": -104.8029
  },
  {
    "address": "3564 S Jebel Circle, Aurora, CO",
    "price": 500000.0,
    "beds": 3.0,
    "baths": 2.0,
    "sqft": 1310.0,
    "year_built": "N/A",
    "description": "",
    "url": "https://www.zillow.com/homedetails/13091764_zpid/",
    "location": "Aurora, CO",
    "list_date": 1274060000,
    "primary_photo": "https://photos.zillowstatic.com/fp/4639dc068ebb6e77a295087e94a380ad-p_e.jpg",
    "alt_photos": [],
    "latitude": 39.65147,
    "longitude": -104.74955
  },
  {
    "address": "2664 S Halifax Court, Aurora, CO",
    "price": 490000.0,
    "beds": 3.0,
    "baths": 3.0,
    "sqft": 1992.0,
    "year_built": "N/A",
    "description": "",
    "url": "https://www.zillow.com/homedetails/13076756_zpid/",
    "location": "Aurora, CO",
    "list_date": 56942000,
    "primary_photo": "https://maps.googleapis.com/maps/api/staticmap?mobile=false&sensor=true&maptype=satellite&size=575x242&zoom=17&center=39.66828918457031,-104.75374603271484&key=AIzaSyBWYJWCA8FNMQvSe_k3LKfDGJaEgdKwsco&signature=RARth9i_roEW2rtKXjMoSDm3Wfo=",
    "alt_photos": [],
    "latitude": 39.66829,
    "longitude": -104.753746
  },
  {
    "address": "12199 E Amherst Circle, Aurora, CO",
    "price": 499000.0,
    "beds": 4.0,
    "baths": 3.0,
    "sqft": 2524.0,
    "year_built": "N/A",
    "description": "",
    "url": "https://www.zillow.com/homedetails/13058981_zpid/",
    "location": "Aurora, CO",
    "list_date": 8183769000,
    "primary_photo": "https://photos.zillowstatic.com/fp/d3e530b40797acb36a442905af6f7285-p_e.jpg",
    "alt_photos": [],
    "latitude": 39.665737,
    "longitude": -104.84549
  },
  {
    "address": "19863 E Dartmouth Pl, Aurora, CO",
    "price": 459900.0,
    "beds": 2.0,
    "baths": 2.0,
    "sqft": 1408.0,
    "year_built": "N/A",
    "description": "",
    "url": "https://www.zillow.com/homedetails/13089698_zpid/",
    "location": "Aurora, CO",
    "list_date": 2996937000,
    "primary_photo": "https://photos.zillowstatic.com/fp/cefb9906fbb780ae02789aca48f42d56-p_e.jpg",
    "alt_photos": [],
    "latitude": 39.660217,
    "longitude": -104.75595
  },
  {
    "address": "3970 S Atchison Way, Aurora, CO",
    "price": 478400.0,
    "beds": 3.0,
    "baths": 4.0,
    "sqft": 2236.0,
    "year_built": "N/A",
    "description": "",
    "url": "https://www.zillow.com/homedetails/13101466_zpid/",
    "location": "Aurora, CO",
    "list_date": 72636525000,
    "primary_photo": "https://photos.zillowstatic.com/fp/574f119b686e39623617f904f658f817-p_e.jpg",
    "alt_photos": [],
    "latitude": 39.644455,
    "longitude": -104.828636
  },
  {
    "address": "4723 S Pagosa Way, Aurora, CO",
    "price": 470000.0,
    "beds": 3.0,
    "baths": 2.0,
    "sqft": 1690.0,
    "year_built": "N/A",
    "description": "",
    "url": "https://www.zillow.com/homedetails/13106969_zpid/",
    "location": "Aurora, CO",
    "list_date": 1270162000,
    "primary_photo": "https://photos.zillowstatic.com/fp/0e535616ec46309f08268d94870118ff-p_e.jpg",
    "alt_photos": [],
    "latitude": 39.631233,
    "longitude": -104.78968
  },
  {
    "address": "16930 E Wagontrail Parkway, Aurora, CO",
    "price": 494000.0,
    "beds": 4.0,
    "baths": 2.0,
    "sqft": 1651.0,
    "year_built": "N/A",
    "description": "",
    "url": "https://www.zillow.com/homedetails/13107458_zpid/",
    "location": "Aurora, CO",
    "list_date": 2584192000,
    "primary_photo": "https://photos.zillowstatic.com/fp/9e0947d4f1ce3c9841bf203003f01f2c-p_e.jpg",
    "alt_photos": [],
    "latitude": 39.630436,
    "longitude": -104.79097
  },
  {
    "address": "12102 E Hawaii Drive, Aurora, CO",
    "price": 500000.0,
    "beds": 4.0,
    "baths": 2.0,
    "sqft": 2333.0,
    "year_built": "N/A",
    "description": "",
    "url": "https://www.zillow.com/homedetails/13049568_zpid/",
    "location": "Aurora, CO",
    "list_date": 3769496000,
    "primary_photo": "https://photos.zillowstatic.com/fp/8e62a82c50f5cf0843d9fb9a9cf7807b-p_e.jpg",
    "alt_photos": [],
    "latitude": 39.687042,
    "longitude": -104.84696
  },
  {
    "address": "2624 S Carson Way, Aurora, CO",
    "price": 450000.0,
    "beds": 5.0,
    "baths": 2.0,
    "sqft": 2240.0,
    "year_built": "N/A",
    "description": "",
    "url": "https://www.zillow.com/homedetails/13081306_zpid/",
    "location": "Aurora, CO",
    "list_date": 1791526000,
    "primary_photo": "https://photos.zillowstatic.com/fp/be27ee7233fbae28bdff099c35a1fff3-p_e.jpg",
    "alt_photos": [],
    "latitude": 39.66903,
    "longitude": -104.82311
  },
  {
    "address": "12516 E Alaska Avenue, Aurora, CO",
    "price": 470000.0,
    "beds": 3.0,
    "baths": 2.0,
    "sqft": 1924.0,
    "year_built": "N/A",
    "description": "",
    "url": "https://www.zillow.com/homedetails/13041444_zpid/",
    "location": "Aurora, CO",
    "list_date": 2906974000,
    "primary_photo": "https://photos.zillowstatic.com/fp/969980bd06852c240d2e283ba2fc1770-p_e.jpg",
    "alt_photos": [],
    "latitude": 39.705776,
    "longitude": -104.84328
  },
  {
    "address": "1663 S Yampa Way, Aurora, CO",
    "price": 475000.0,
    "beds": 4.0,
    "baths": 2.0,
    "sqft": 2206.0,
    "year_built": "N/A",
    "description": "",
    "url": "https://www.zillow.com/homedetails/13074712_zpid/",
    "location": "Aurora, CO",
    "list_date": 836676000,
    "primary_photo": "https://photos.zillowstatic.com/fp/dad1d1d885e565246c63edd55d14f13b-p_e.jpg",
    "alt_photos": [],
    "latitude": 39.686375,
    "longitude": -104.7744
  },
  {
    "address": "11612 E Cornell Circle, Aurora, CO",
    "price": 465000.0,
    "beds": 4.0,
    "baths": 3.0,
    "sqft": 2685.0,
    "year_built": "N/A",
    "description": "",
    "url": "https://www.zillow.com/homedetails/13057535_zpid/",
    "location": "Aurora, CO",
    "list_date": 1061985000,
    "primary_photo": "https://photos.zillowstatic.com/fp/3b15a2801956544699924b783ea62f6d-p_e.jpg",
    "alt_photos": [],
    "latitude": 39.662346,
    "longitude": -104.85253
  },
  {
    "address": "1957 Hanover Street, Aurora, CO",
    "price": 470000.0,
    "beds": 3.0,
    "baths": 2.0,
    "sqft": 1242.0,
    "year_built": "N/A",
    "description": "",
    "url": "https://www.zillow.com/homedetails/13019679_zpid/",
    "location": "Aurora, CO",
    "list_date": 1093188000,
    "primary_photo": "https://photos.zillowstatic.com/fp/2569acac79a773b09ec2317d04863c66-p_e.jpg",
    "alt_photos": [],
    "latitude": 39.746788,
    "longitude": -104.86735
  },
  {
    "address": "11531 E Dakota Avenue, Aurora, CO",
    "price": 495000.0,
    "beds": 3.0,
    "baths": 2.0,
    "sqft": 2978.0,
    "year_built": "N/A",
    "description": "",
    "url": "https://www.zillow.com/homedetails/13042459_zpid/",
    "location": "Aurora, CO",
    "list_date": 5425507000,
    "primary_photo": "https://photos.zillowstatic.com/fp/74ac2f38d4eeaf7f212179d801216ef4-p_e.jpg",
    "alt_photos": [],
    "latitude": 39.71046,
    "longitude": -104.85325
  },
  {
    "address": "20709 E Hampden Place, Aurora, CO",
    "price": 490000.0,
    "beds": 3.0,
    "baths": 2.0,
    "sqft": 1284.0,
    "year_built": "N/A",
    "description": "",
    "url": "https://www.zillow.com/homedetails/54644867_zpid/",
    "location": "Aurora, CO",
    "list_date": 4218559000,
    "primary_photo": "https://photos.zillowstatic.com/fp/70cbe37e3144b7b3cb7db7875fceb188-p_e.jpg",
    "alt_photos": [],
    "latitude": 39.65271,
    "longitude": -104.746445
  }
]