[
  {
    "address": "4261 Threshing Drive, Brighton, CO",
    "price": 490000.0,
    "beds": 3.0,
    "baths": 3.0,
    "sqft": 3195.0,
    "year_built": "N/A",
    "description": "",
    "url": "https://www.zillow.com/homedetails/68568242_zpid/",
    "location": "Brighton, CO",
    "list_date": 164265000,
    "primary_photo": "https://photos.zillowstatic.com/fp/b6209f3d5ff52f32aafb31204a323e6e-p_e.jpg",
    "alt_photos": [],
    "latitude": 39.992,
    "longitude": -104.76642
  },
  {
    "address": "1090 Quail Circle, Brighton, CO",
    "price": 485000.0,
    "beds": 4.0,
    "baths": 4.0,
    "sqft": 1877.0,
    "year_built": "N/A",
    "description": "",
    "url": "https://www.zillow.com/homedetails/12945333_zpid/",
    "location": "Brighton, CO",
    "list_date": 885282000,
    "primary_photo": "https://photos.zillowstatic.com/fp/68ac4b5b098942d95cfebef2980e3495-p_e.jpg",
    "alt_photos": [],
    "latitude": 39.96915,
    "longitude": -104.833595
  },
  {
    "address": "2672 Cherry Cir, Brighton, CO",
    "price": 475000.0,
    "beds": 4.0,
    "baths": 3.0,
    "sqft": 1833.0,
    "year_built": "N/A",
    "description": "",
    "url": "https://www.zillow.com/homedetails/12942317_zpid/",
    "location": "Brighton, CO",
    "list_date": 8367366000,
    "primary_photo": "https://photos.zillowstatic.com/fp/1b24a671b3f7ac867a7fad0bfb2b2ff0-p_e.jpg",
    "alt_photos": [],
    "latitude": 39.97303,
    "longitude": -104.79029
  },
  {
    "address": "6050 Hourglass Drive, Brighton, CO",
    "price": 479990.0,
    "beds": 3.0,
    "baths": 2.0,
    "sqft": 1619.0,
    "year_built": "N/A",
    "description": "",
    "url": "https://www.zillow.com/homedetails/442902965_zpid/",
    "location": "Brighton, CO",
    "list_date": 2271195000,
    "primary_photo": "https://photos.zillowstatic.com/fp/1fddc3f43c75c9ae4306665217d383ae-p_e.jpg",
    "alt_photos": [],
    "latitude": 39.996876,
    "longitude": -104.73127
  },
  {
    "address": "4552 Crestone Peak Street, Brighton, CO",
    "price": 465500.0,
    "beds": 3.0,
    "baths": 2.0,
    "sqft": 1502.0,
    "year_built": "N/A",
    "description": "",
    "url": "https://www.zillow.com/homedetails/67151353_zpid/",
    "location": "Brighton, CO",
    "list_date": 2582911000,
    "primary_photo": "https://photos.zillowstatic.com/fp/026db7ef7e15d4d91816fb5bf951a483-p_e.jpg",
    "alt_photos": [],
    "latitude": 39.985905,
    "longitude": -104.760414
  },
  {
    "address": "303 Tumbleweed Drive, Brighton, CO",
    "price": 490000.0,
    "beds": 3.0,
    "baths": 3.0,
    "sqft": 2205.0,
    "year_built": "N/A",
    "description": "",
    "url": "https://www.zillow.com/homedetails/61505304_zpid/",
    "location": "Brighton, CO",
    "list_date": 4843769000,
    "primary_photo": "https://photos.zillowstatic.com/fp/5def12ab4de0995c51766754ba88804f-p_e.jpg",
    "alt_photos": [],
    "latitude": 39.992653,
    "longitude": -104.766785
  },
  {
    "address": "101 S 11th Avenue, Brighton, CO",
    "price": 479900.0,
    "beds": 3.0,
    "baths": 2.0,
    "sqft": 1872.0,
    "year_built": "N/A",
    "description": "",
    "url": "https://www.zillow.com/homedetails/12943069_zpid/",
    "location": "Brighton, CO",
    "list_date": 10047314000,
    "primary_photo": "https://photos.zillowstatic.com/fp/46a54c744dc728eaa7004084f3b6e626-p_e.jpg",
    "alt_photos": [],
    "latitude": 39.985065,
    "longitude": -104.8086
  },
  {
    "address": "4635 Crestone Peak Street, Brighton, CO",
    "price": 472900.0,
    "beds": 4.0,
    "baths": 4.0,
    "sqft": 2100.0,
    "year_built": "N/A",
    "description": "",
    "url": "https://www.zillow.com/homedetails/103005772_zpid/",
    "location": "Brighton, CO",
    "list_date": 10999011000,
    "primary_photo": "https://photos.zillowstatic.com/fp/9e36a2953269fb82ef355b50db85081c-p_e.jpg",
    "alt_photos": [],
    "latitude": 39.986473,
    "longitude": -104.7591
  },
  {
    "address": "5268 Nighthawk Parkway, Brighton, CO",
    "price": 464900.0,
    "beds": 3.0,
    "baths": 3.0,
    "sqft": 1736.0,
    "year_built": "N/A",
    "description": "",
    "url": "https://www.zillow.com/homedetails/12943942_zpid/",
    "location": "Brighton, CO",
    "list_date": 19557427000,
    "primary_photo": "https://photos.zillowstatic.com/fp/f0690643b5eeb372b9d3a4eb2f987d45-p_e.jpg",
    "alt_photos": [],
    "latitude": 39.98136,
    "longitude": -104.74805
  },
  {
    "address": "4384 Threshing Drive, Brighton, CO",
    "price": 500000.0,
    "beds": 3.0,
    "baths": 3.0,
    "sqft": 2202.0,
    "year_built": "N/A",
    "description": "",
    "url": "https://www.zillow.com/homedetails/61505347_zpid/",
    "location": "Brighton, CO",
    "list_date": 3013130000,
    "primary_photo": "https://photos.zillowstatic.com/fp/bda857a7a298d0ae2e3dd771bc8c773b-p_e.jpg",
    "alt_photos": [],
    "latitude": 39.992535,
    "longitude": -104.76445
  },
  {
    "address": "33 Gaviota Avenue, Brighton, CO",
    "price": 450000.0,
    "beds": 2.0,
    "baths": 3.0,
    "sqft": 1620.0,
    "year_built": "N/A",
    "description": "",
    "url": "https://www.zillow.com/homedetails/58289064_zpid/",
    "location": "Brighton, CO",
    "list_date": 10535109000,
    "primary_photo": "https://photos.zillowstatic.com/fp/5b79e0a132f882012ada9d44b354ac87-p_e.jpg",
    "alt_photos": [],
    "latitude": 39.986267,
    "longitude": -104.749794
  },
  {
    "address": "470 Grey Swallow Street, Brighton, CO",
    "price": 475000.0,
    "beds": 3.0,
    "baths": 2.0,
    "sqft": 1825.0,
    "year_built": "N/A",
    "description": "",
    "url": "https://www.zillow.com/homedetails/12943988_zpid/",
    "location": "Brighton, CO",
    "list_date": 189458000,
    "primary_photo": "https://photos.zillowstatic.com/fp/a2afcec1b007483d5c26d68821e7be9a-p_e.jpg",
    "alt_photos": [],
    "latitude": 39.98032,
    "longitude": -104.75129
  },
  {
    "address": "2121 Barnwood Dr, Brighton, CO",
    "price": 498990.0,
    "beds": 4.0,
    "baths": 3.0,
    "sqft": 1803.0,
    "year_built": "N/A",
    "description": "",
    "url": "https://www.zillow.com/homedetails/351155265_zpid/",
    "location": "Brighton, CO",
    "list_date": 192475000,
    "primary_photo": "https://photos.zillowstatic.com/fp/62c24b080e9e4ae485b630843874a415-p_e.jpg",
    "alt_photos": [],
    "latitude": 39.957214,
    "longitude": -104.80818
  },
  {
    "address": "5108 Buckwheat Rd, Henderson, CO",
    "price": 468000.0,
    "beds": 3.0,
    "baths": 3.0,
    "sqft": 1860.0,
    "year_built": "N/A",
    "description": "",
    "url": "https://www.zillow.com/homedetails/337808723_zpid/",
    "location": "Henderson, CO",
    "list_date": 2530152000,
    "primary_photo": "https://photos.zillowstatic.com/fp/2c2406f64df3550bf3a09dafc8e964ce-p_e.jpg",
    "alt_photos": [],
    "latitude": 39.91258,
    "longitude": -104.8357
  },
  {
    "address": "79 N 13th Avenue, Brighton, CO",
    "price": 478000.0,
    "beds": 5.0,
    "baths": 2.0,
    "sqft": 2000.0,
    "year_built": "N/A",
    "description": "",
    "url": "https://www.zillow.com/homedetails/12940055_zpid/",
    "location": "Brighton, CO",
    "list_date": 1473203000,
    "primary_photo": "https://photos.zillowstatic.com/fp/8bca2a89eecdf7daed829667e2d4a0f0-p_e.jpg",
    "alt_photos": [],
    "latitude": 39.98825,
    "longitude": -104.805695
  },
  {
    "address": "4715 Crestone Peak Street, Brighton, CO",
    "price": 485000.0,
    "beds": 3.0,
    "baths": 3.0,
    "sqft": 2542.0,
    "year_built": "N/A",
    "description": "",
    "url": "https://www.zillow.com/homedetails/103008932_zpid/",
    "location": "Brighton, CO",
    "list_date": 2613814000,
    "primary_photo": "https://photos.zillowstatic.com/fp/3a7387f4570dd5747e799a190ce237d2-p_e.jpg",
    "alt_photos": [],
    "latitude": 39.986305,
    "longitude": -104.75786
  },
  {
    "address": "2192 Farmlore Drive, Brighton, CO",
    "price": 482000.0,
    "beds": 3.0,
    "baths": 3.0,
    "sqft": 1672.0,
    "year_built": "N/A",
    "description": "",
    "url": "https://www.zillow.com/homedetails/442906205_zpid/",
    "location": "Brighton, CO",
    "list_date": 368321000,
    "primary_photo": "https://photos.zillowstatic.com/fp/c8feac781d2f68f84c590e7e2803ce44-p_e.jpg",
    "alt_photos": [],
    "latitude": 39.955395,
    "longitude": -104.80193
  },
  {
    "address": "4847 Astor Place, Brighton, CO",
    "price": 474900.0,
    "beds": 3.0,
    "baths": 2.0,
    "sqft": 1366.0,
    "year_built": "N/A",
    "description": "",
    "url": "https://www.zillow.com/homedetails/442364866_zpid/",
    "location": "Brighton, CO",
    "list_date": 1303085000,
    "primary_photo": "https://photos.zillowstatic.com/fp/9844bf90fa1a71f1988f1b1b6d23d120-p_e.jpg",
    "alt_photos": [],
    "latitude": 39.990986,
    "longitude": -104.754
  },
  {
    "address": "2174 Farmlore Drive, Brighton, CO",
    "price": 479000.0,
    "beds": 3.0,
    "baths": 3.0,
    "sqft": 1672.0,
    "year_built": "N/A",
    "description": "",
    "url": "https://www.zillow.com/homedetails/438822347_zpid/",
    "location": "Brighton, CO",
    "list_date": 8557812000,
    "primary_photo": "https://photos.zillowstatic.com/fp/1e7f56ff3e7740b776daaaae01086ca7-p_e.jpg",
    "alt_photos": [],
    "latitude": 39.95565,
    "longitude": -104.80186
  },
  {
    "address": "765 Tarragon Road, Henderson, CO",
    "price": 475000.0,
    "beds": 3.0,
    "baths": 3.0,
    "sqft": 1976.0,
    "year_built": "N/A",
    "description": "",
    "url": "https://www.zillow.com/homedetails/337808946_zpid/",
    "location": "Henderson, CO",
    "list_date": 10632929000,
    "primary_photo": "https://photos.zillowstatic.com/fp/5cfe95cbdc6dc2035d2c7fc667ac0de2-p_e.jpg",
    "alt_photos": [],
    "latitude": 39.91146,
    "longitude": -104.8336
  },
  {
    "address": "5242 Longs Peak Street, Brighton, CO",
    "price": 451000.0,
    "beds": 2.0,
    "baths": 1.0,
    "sqft": 2105.0,
    "year_built": "N/A",
    "description": "",
    "url": "https://www.zillow.com/homedetails/102996205_zpid/",
    "location": "Brighton, CO",
    "list_date": 2186901000,
    "primary_photo": "https://photos.zillowstatic.com/fp/0ebb18890c5dc3ea4731f94ea92e33ce-p_e.jpg",
    "alt_photos": [],
    "latitude": 39.994354,
    "longitude": -104.74695
  },
  {
    "address": "877 Twining Ave, Brighton, CO",
    "price": 497000.0,
    "beds": 3.0,
    "baths": 3.0,
    "sqft": 1816.0,
    "year_built": "N/A",
    "description": "",
    "url": "https://www.zillow.com/homedetails/334259286_zpid/",
    "location": "Brighton, CO",
    "list_date": 7932881000,
    "primary_photo": "https://photos.zillowstatic.com/fp/351670e900a36ce0dba71a31ea2be38c-p_e.jpg",
    "alt_photos": [],
    "latitude": 39.99811,
    "longitude": -104.73664
  },
  {
    "address": "Aurora Plan, Farmlore, Brighton, CO",
    "price": 474999.0,
    "beds": 4.0,
    "baths": 3.0,
    "sqft": 1803.0,
    "year_built": "N/A",
    "description": "",
    "url": "https://www.zillow.com/homedetails/351155289_zpid/",
    "location": "Brighton, CO",
    "list_date": 850345000,
    "primary_photo": "https://photos.zillowstatic.com/fp/fea6b9da66415e1f2b0ad100f3df6f39-p_e.jpg",
    "alt_photos": [],
    "latitude": 39.957214,
    "longitude": -104.80818
  },
  {
    "address": "Primrose Plan, Ridgeline Vista: The Flora Collection, Brighton, CO",
    "price": 479990.0,
    "beds": 3.0,
    "baths": 2.0,
    "sqft": 1619.0,
    "year_built": "N/A",
    "description": "",
    "url": "https://www.zillow.com/homedetails/2054405119_zpid/",
    "location": "Brighton, CO",
    "list_date": 3903919000,
    "primary_photo": "https://photos.zillowstatic.com/fp/8138aceae5f7bf60bbdb5bfcb9eb6706-p_e.jpg",
    "alt_photos": [],
    "latitude": 40.0001,
    "longitude": -104.733116
  },
  {
    "address": "224 Kino Court, Brighton, CO",
    "price": 499900.0,
    "beds": 3.0,
    "baths": 2.0,
    "sqft": 1366.0,
    "year_built": "N/A",
    "description": "",
    "url": "https://www.zillow.com/homedetails/441202755_zpid/",
    "location": "Brighton, CO",
    "list_date": 1303085000,
    "primary_photo": "https://photos.zillowstatic.com/fp/2f6e9c0e445377157ef48f5b9b253ed6-p_e.jpg",
    "alt_photos": [],
    "latitude": 39.990665,
    "longitude": -104.75329
  },
  {
    "address": "Stella Plan, Farmlore, Brighton, CO",
    "price": 479999.0,
    "beds": 4.0,
    "baths": 3.0,
    "sqft": 1951.0,
    "year_built": "N/A",
    "description": "",
    "url": "https://www.zillow.com/homedetails/351155305_zpid/",
    "location": "Brighton, CO",
    "list_date": 5277032000,
    "primary_photo": "https://photos.zillowstatic.com/fp/7b8d910394095f2c445a27ddb40a5212-p_e.jpg",
    "alt_photos": [],
    "latitude": 39.957214,
    "longitude": -104.80818
  },
  {
    "address": "4799 Astor Place, Brighton, CO",
    "price": 499900.0,
    "beds": 3.0,
    "baths": 2.0,
    "sqft": 1366.0,
    "year_built": "N/A",
    "description": "",
    "url": "https://www.zillow.com/homedetails/443150530_zpid/",
    "location": "Brighton, CO",
    "list_date": 5637306000,
    "primary_photo": "https://photos.zillowstatic.com/fp/d894a9cf72059d9e19b840fc7ccc6aa0-p_e.jpg",
    "alt_photos": [],
    "latitude": 39.99089,
    "longitude": -104.75467
  },
  {
    "address": "709 Twining Avenue, Brighton, CO",
    "price": 452900.0,
    "beds": 2.0,
    "baths": 2.0,
    "sqft": 966.0,
    "year_built": "N/A",
    "description": "",
    "url": "https://www.zillow.com/homedetails/334259390_zpid/",
    "location": "Brighton, CO",
    "list_date": 34147146000,
    "primary_photo": "https://photos.zillowstatic.com/fp/b59c7da1a4742494a5eecda29d0fabda-p_e.jpg",
    "alt_photos": [],
    "latitude": 39.995777,
    "longitude": -104.7367
  },
  {
    "address": "Madrid Plan, Parkway at Prairie Center Village, Brighton, CO",
    "price": 483950.0,
    "beds": 3.0,
    "baths": 3.0,
    "sqft": 1804.0,
    "year_built": "N/A",
    "description": "",
    "url": "https://www.zillow.com/homedetails/440011216_zpid/",
    "location": "Brighton, CO",
    "list_date": 1034212000,
    "primary_photo": "https://photos.zillowstatic.com/fp/d0ba4a8eb213a2b5025737d55c40e77d-p_e.jpg",
    "alt_photos": [],
    "latitude": 39.954475,
    "longitude": -104.788086
  },
  {
    "address": "2787 Optimista Place, Brighton, CO",
    "price": 483850.0,
    "beds": 2.0,
    "baths": 3.0,
    "sqft": 1552.0,
    "year_built": "N/A",
    "description": "",
    "url": "https://www.zillow.com/homedetails/439495172_zpid/",
    "location": "Brighton, CO",
    "list_date": 6819904000,
    "primary_photo": "https://photos.zillowstatic.com/fp/3b77e3a1d65e9eed4a1c111f9b88bcbf-p_e.jpg",
    "alt_photos": [],
    "latitude": 39.95416,
    "longitude": -104.78854
  },
  {
    "address": "770 Twining Avenue, Brighton, CO",
    "price": 495900.0,
    "beds": 3.0,
    "baths": 2.0,
    "sqft": 1293.0,
    "year_built": "N/A",
    "description": "",
    "url": "https://www.zillow.com/homedetails/334259297_zpid/",
    "location": "Brighton, CO",
    "list_date": 22480523000,
    "primary_photo": "https://photos.zillowstatic.com/fp/16f64d957f61bcdac198887f6312aa5c-p_e.jpg",
    "alt_photos": [],
    "latitude": 39.9966,
    "longitude": -104.73612
  },
  {
    "address": "5863 Sawdust Drive, Brighton, CO",
    "price": 452900.0,
    "beds": 2.0,
    "baths": 2.0,
    "sqft": 966.0,
    "year_built": "N/A",
    "description": "",
    "url": "https://www.zillow.com/homedetails/334259253_zpid/",
    "location": "Brighton, CO",
    "list_date": 29224057000,
    "primary_photo": "https://photos.zillowstatic.com/fp/f6b2c8f67dc56452a998f7a3271ab957-p_e.jpg",
    "alt_photos": [],
    "latitude": 39.995327,
    "longitude": -104.73581
  },
  {
    "address": "Celeste Plan, Farmlore, Brighton, CO",
    "price": 454999.0,
    "beds": 3.0,
    "baths": 3.0,
    "sqft": 1606.0,
    "year_built": "N/A",
    "description": "",
    "url": "https://www.zillow.com/homedetails/351155279_zpid/",
    "location": "Brighton, CO",
    "list_date": 5635464000,
    "primary_photo": "https://photos.zillowstatic.com/fp/9de218369baf196cf0cf1af1de1c3767-p_e.jpg",
    "alt_photos": [],
    "latitude": 39.957214,
    "longitude": -104.80818
  },
  {
    "address": "5913 Sawdust Drive, Brighton, CO",
    "price": 452900.0,
    "beds": 2.0,
    "baths": 2.0,
    "sqft": 966.0,
    "year_built": "N/A",
    "description": "",
    "url": "https://www.zillow.com/homedetails/334259476_zpid/",
    "location": "Brighton, CO",
    "list_date": 29224916000,
    "primary_photo": "https://photos.zillowstatic.com/fp/7ba9e191552339c8296c6f8294afde04-p_e.jpg",
    "alt_photos": [],
    "latitude": 39.995613,
    "longitude": -104.73536
  },
  {
    "address": "2277 Serenidad Street, Brighton, CO",
    "price": 473300.0,
    "beds": 2.0,
    "baths": 2.0,
    "sqft": 1336.0,
    "year_built": "N/A",
    "description": "",
    "url": "https://www.zillow.com/homedetails/442906518_zpid/",
    "location": "Brighton, CO",
    "list_date": 4870794000,
    "primary_photo": "https://photos.zillowstatic.com/fp/559a92cb83a5daa730fced295e8fe3ca-p_e.jpg",
    "alt_photos": [],
    "latitude": 39.953735,
    "longitude": -104.78941
  },
  {
    "address": "Plan 1935 Plan, Farmlore Villas, Brighton, CO",
    "price": 450990.0,
    "beds": 3.0,
    "baths": 3.0,
    "sqft": 1935.0,
    "year_built": "N/A",
    "description": "",
    "url": "https://www.zillow.com/homedetails/439961641_zpid/",
    "location": "Brighton, CO",
    "list_date": 1222395000,
    "primary_photo": "https://photos.zillowstatic.com/fp/54d14afec9fcc9888d62cc83d7b848f7-p_e.jpg",
    "alt_photos": [],
    "latitude": 39.95625,
    "longitude": -104.80163
  },
  {
    "address": "857 Sawdust Drive, Brighton, CO",
    "price": 452900.0,
    "beds": 2.0,
    "baths": 2.0,
    "sqft": 966.0,
    "year_built": "N/A",
    "description": "",
    "url": "https://www.zillow.com/homedetails/334259254_zpid/",
    "location": "Brighton, CO",
    "list_date": 14018822000,
    "primary_photo": "https://photos.zillowstatic.com/fp/bcc213afe0bec20df4fe03dd0f6f1102-p_e.jpg",
    "alt_photos": [],
    "latitude": 39.997833,
    "longitude": -104.73479
  },
  {
    "address": "2263 Serenidad St, Brighton, CO",
    "price": 453350.0,
    "beds": 2.0,
    "baths": 2.0,
    "sqft": 1136.0,
    "year_built": "N/A",
    "description": "",
    "url": "https://www.zillow.com/homedetails/442906516_zpid/",
    "location": "Brighton, CO",
    "list_date": 3832855000,
    "primary_photo": "https://photos.zillowstatic.com/fp/515ed6768521b49e9d3f539106f77fc3-p_e.jpg",
    "alt_photos": [],
    "latitude": 39.953873,
    "longitude": -104.78953
  },
  {
    "address": "869 Sawdust Drive, Brighton, CO",
    "price": 495900.0,
    "beds": 3.0,
    "baths": 2.0,
    "sqft": 1293.0,
    "year_built": "N/A",
    "description": "",
    "url": "https://www.zillow.com/homedetails/334259268_zpid/",
    "location": "Brighton, CO",
    "list_date": 18850864000,
    "primary_photo": "https://photos.zillowstatic.com/fp/83cd91850afc9ffe763ec042aea4f309-p_e.jpg",
    "alt_photos": [],
    "latitude": 39.997974,
    "longitude": -104.73479
  },
  {
    "address": "819 Sunflower Drive, Brighton, CO",
    "price": 495900.0,
    "beds": 3.0,
    "baths": 2.0,
    "sqft": 1293.0,
    "year_built": "N/A",
    "description": "",
    "url": "https://www.zillow.com/homedetails/334259210_zpid/",
    "location": "Brighton, CO",
    "list_date": 24470906000,
    "primary_photo": "https://photos.zillowstatic.com/fp/e53ced5d34e5883be672016944b92e4c-p_e.jpg",
    "alt_photos": [],
    "latitude": 39.997375,
    "longitude": -104.7357
  },
  {
    "address": "2283 Serenidad St, Brighton, CO",
    "price": 474700.0,
    "beds": 2.0,
    "baths": 3.0,
    "sqft": 1552.0,
    "year_built": "N/A",
    "description": "",
    "url": "https://www.zillow.com/homedetails/442906519_zpid/",
    "location": "Brighton, CO",
    "list_date": 3831896000,
    "primary_photo": "https://photos.zillowstatic.com/fp/f0beb442c84a0468da6d43b2f784517f-p_e.jpg",
    "alt_photos": [],
    "latitude": 39.953835,
    "longitude": -104.78958
  }
]