[
  {
    "address": "5832 S Netherland Circle, Centennial, CO",
    "price": 496800.0,
    "beds": 3.0,
    "baths": 2.0,
    "sqft": 1431.0,
    "year_built": "N/A",
    "description": "",
    "url": "https://www.zillow.com/homedetails/13114154_zpid/",
    "location": "Centennial, CO",
    "list_date": 8534833000,
    "primary_photo": "https://photos.zillowstatic.com/fp/63248c4502d21964d05e62731879a74d-p_e.jpg",
    "alt_photos": [],
    "latitude": 39.609962,
    "longitude": -104.73902
  },
  {
    "address": "4391 S Fundy Street, Centennial, CO",
    "price": 485000.0,
    "beds": 3.0,
    "baths": 2.0,
    "sqft": 1527.0,
    "year_built": "N/A",
    "description": "",
    "url": "https://www.zillow.com/homedetails/13109164_zpid/",
    "location": "Centennial, CO",
    "list_date": 3587447000,
    "primary_photo": "https://photos.zillowstatic.com/fp/6e8d23edbbb24c5d1ab19f3daf004f31-p_e.jpg",
    "alt_photos": [],
    "latitude": 39.636436,
    "longitude": -104.758354
  },
  {
    "address": "2427 E Fremont Court, Centennial, CO",
    "price": 485000.0,
    "beds": 3.0,
    "baths": 2.0,
    "sqft": 2024.0,
    "year_built": "N/A",
    "description": "",
    "url": "https://www.zillow.com/homedetails/13161749_zpid/",
    "location": "Centennial, CO",
    "list_date": 1156777000,
    "primary_photo": "https://photos.zillowstatic.com/fp/a4baeeded9ab14431e7c60201072235a-p_e.jpg",
    "alt_photos": [],
    "latitude": 39.58684,
    "longitude": -104.959755
  },
  {
    "address": "6712 E Briarwood Drive, Centennial, CO",
    "price": 475000.0,
    "beds": 2.0,
    "baths": 2.0,
    "sqft": 1944.0,
    "year_built": "N/A",
    "description": "",
    "url": "https://www.zillow.com/homedetails/13134720_zpid/",
    "location": "Centennial, CO",
    "list_date": 1081845000,
    "primary_photo": "https://photos.zillowstatic.com/fp/7700016ecbb57c863f29c1bb0402f778-p_e.jpg",
    "alt_photos": [],
    "latitude": 39.593155,
    "longitude": -104.91108
  },
  {
    "address": "5555 E Briarwood Avenue  Unit 2403, Centennial, CO",
    "price": 478850.0,
    "beds": 2.0,
    "baths": 3.0,
    "sqft": 1928.0,
    "year_built": "N/A",
    "description": "",
    "url": "https://www.zillow.com/homedetails/13136358_zpid/",
    "location": "Centennial, CO",
    "list_date": 3005146000,
    "primary_photo": "https://photos.zillowstatic.com/fp/e1d02723b55d613a038f59d126d5f055-p_e.jpg",
    "alt_photos": [],
    "latitude": 39.59253,
    "longitude": -104.92547
  },
  {
    "address": "7640 S Monaco Circle, Centennial, CO",
    "price": 494750.0,
    "beds": 2.0,
    "baths": 2.0,
    "sqft": 1654.0,
    "year_built": "N/A",
    "description": "",
    "url": "https://www.zillow.com/homedetails/13139127_zpid/",
    "location": "Centennial, CO",
    "list_date": 12839349000,
    "primary_photo": "https://photos.zillowstatic.com/fp/f679be79e68f522787c1dabc25c16c1d-p_e.jpg",
    "alt_photos": [],
    "latitude": 39.57758,
    "longitude": -104.91307
  },
  {
    "address": "4202 E Maplewood Way, Centennial, CO",
    "price": 495000.0,
    "beds": 2.0,
    "baths": 2.0,
    "sqft": 1640.0,
    "year_built": "N/A",
    "description": "",
    "url": "https://www.zillow.com/homedetails/13127582_zpid/",
    "location": "Centennial, CO",
    "list_date": 7927952000,
    "primary_photo": "https://photos.zillowstatic.com/fp/e3952b65a673160c0f09bf1cf1b569ee-p_e.jpg",
    "alt_photos": [],
    "latitude": 39.605423,
    "longitude": -104.93621
  },
  {
    "address": "9019 E Panorama Circle  Unit D211, Englewood, CO",
    "price": 450000.0,
    "beds": 2.0,
    "baths": 3.0,
    "sqft": 1836.0,
    "year_built": "N/A",
    "description": "",
    "url": "https://www.zillow.com/homedetails/181276917_zpid/",
    "location": "Englewood, CO",
    "list_date": 6703637000,
    "primary_photo": "https://photos.zillowstatic.com/fp/372da5f537f4bf0d0ccd7ac56b05061e-p_e.jpg",
    "alt_photos": [],
    "latitude": 39.57874,
    "longitude": -104.88438
  }
]