[
  {
    "address": "376 Upham Street, Lakewood, CO",
    "price": 450000.0,
    "beds": 3.0,
    "baths": 3.0,
    "sqft": 2321.0,
    "year_built": "N/A",
    "description": "",
    "url": "https://www.zillow.com/homedetails/13767865_zpid/",
    "location": "Lakewood, CO",
    "list_date": 423219000,
    "primary_photo": "https://photos.zillowstatic.com/fp/8037349cea0a1ec8085091bf5c442287-p_e.jpg",
    "alt_photos": [],
    "latitude": 39.72257,
    "longitude": -105.07768
  },
  {
    "address": "1577 Swadley Street, Lakewood, CO",
    "price": 485000.0,
    "beds": 3.0,
    "baths": 1.0,
    "sqft": 1222.0,
    "year_built": "N/A",
    "description": "",
    "url": "https://www.zillow.com/homedetails/13745099_zpid/",
    "location": "Lakewood, CO",
    "list_date": 11507225000,
    "primary_photo": "https://photos.zillowstatic.com/fp/80b4d63660d9ce513c541b78fa9185b2-p_e.jpg",
    "alt_photos": [],
    "latitude": 39.741596,
    "longitude": -105.129814
  },
  {
    "address": "12645 W 1st Place  Unit 82, Lakewood, CO",
    "price": 465000.0,
    "beds": 3.0,
    "baths": 3.0,
    "sqft": 1697.0,
    "year_built": "N/A",
    "description": "",
    "url": "https://www.zillow.com/homedetails/13766423_zpid/",
    "location": "Lakewood, CO",
    "list_date": 195767000,
    "primary_photo": "https://photos.zillowstatic.com/fp/4131a49c273d6637db147ea2536c5997-p_e.jpg",
    "alt_photos": [],
    "latitude": 39.716484,
    "longitude": -105.14246
  },
  {
    "address": "12644 W Virginia Avenue, Lakewood, CO",
    "price": 470000.0,
    "beds": 5.0,
    "baths": 4.0,
    "sqft": 2336.0,
    "year_built": "N/A",
    "description": "",
    "url": "https://www.zillow.com/homedetails/13775885_zpid/",
    "location": "Lakewood, CO",
    "list_date": 1458205000,
    "primary_photo": "https://photos.zillowstatic.com/fp/cee1d3a72240bf8f33777d7a7d676b0e-p_e.jpg",
    "alt_photos": [],
    "latitude": 39.70648,
    "longitude": -105.14125
  },
  {
    "address": "340 S Swadley Street, Lakewood, CO",
    "price": 450000.0,
    "beds": 3.0,
    "baths": 1.0,
    "sqft": 875.0,
    "year_built": "N/A",
    "description": "",
    "url": "https://www.zillow.com/homedetails/13775265_zpid/",
    "location": "Lakewood, CO",
    "list_date": 2933309000,
    "primary_photo": "https://photos.zillowstatic.com/fp/b8b81ca44043fdbd9f7ccbe048fe7059-p_e.jpg",
    "alt_photos": [],
    "latitude": 39.70986,
    "longitude": -105.12916
  },
  {
    "address": "1011 Pierce Street  Unit 5, Lakewood, CO",
    "price": 470000.0,
    "beds": 2.0,
    "baths": 3.0,
    "sqft": 1482.0,
    "year_built": "N/A",
    "description": "",
    "url": "https://www.zillow.com/homedetails/13760572_zpid/",
    "location": "Lakewood, CO",
    "list_date": 698623000,
    "primary_photo": "https://photos.zillowstatic.com/fp/c2b01a83bf2c7f3ee4c5b9b090ad9b8e-p_e.jpg",
    "alt_photos": [],
    "latitude": 39.733955,
    "longitude": -105.07339
  },
  {
    "address": "1832 Simms Street, Lakewood, CO",
    "price": 465000.0,
    "beds": 3.0,
    "baths": 2.0,
    "sqft": 2100.0,
    "year_built": "N/A",
    "description": "",
    "url": "https://www.zillow.com/homedetails/13746047_zpid/",
    "location": "Lakewood, CO",
    "list_date": 852178000,
    "primary_photo": "https://photos.zillowstatic.com/fp/05259b9a0bc04f87550340e011c70754-p_e.jpg",
    "alt_photos": [],
    "latitude": 39.74545,
    "longitude": -105.127945
  },
  {
    "address": "1624 Yarrow Street, Lakewood, CO",
    "price": 462000.0,
    "beds": 3.0,
    "baths": 1.0,
    "sqft": 1072.0,
    "year_built": "N/A",
    "description": "",
    "url": "https://www.zillow.com/homedetails/13748163_zpid/",
    "location": "Lakewood, CO",
    "list_date": 2621615000,
    "primary_photo": "https://photos.zillowstatic.com/fp/41614beef66136c6cf4ced2be282aad5-p_e.jpg",
    "alt_photos": [],
    "latitude": 39.742733,
    "longitude": -105.08345
  },
  {
    "address": "9490 W 14th Avenue  Unit 3, Lakewood, CO",
    "price": 499000.0,
    "beds": 2.0,
    "baths": 3.0,
    "sqft": 1416.0,
    "year_built": "N/A",
    "description": "",
    "url": "https://www.zillow.com/homedetails/331704798_zpid/",
    "location": "Lakewood, CO",
    "list_date": 940110000,
    "primary_photo": "https://photos.zillowstatic.com/fp/557b00bd6d936942b382998cc8f41b4f-p_e.jpg",
    "alt_photos": [],
    "latitude": 39.738155,
    "longitude": -105.10337
  },
  {
    "address": "9193 W 7th Avenue, Lakewood, CO",
    "price": 465000.0,
    "beds": 3.0,
    "baths": 3.0,
    "sqft": 2071.0,
    "year_built": "N/A",
    "description": "",
    "url": "https://www.zillow.com/homedetails/13762080_zpid/",
    "location": "Lakewood, CO",
    "list_date": 12270133000,
    "primary_photo": "https://photos.zillowstatic.com/fp/1b06cab74fe2753e7dc01d5f7bdfa6aa-p_e.jpg",
    "alt_photos": [],
    "latitude": 39.72767,
    "longitude": -105.09995
  },
  {
    "address": "1878 S Cole Street, Lakewood, CO",
    "price": 494900.0,
    "beds": 2.0,
    "baths": 2.0,
    "sqft": 1852.0,
    "year_built": "N/A",
    "description": "",
    "url": "https://www.zillow.com/homedetails/13778375_zpid/",
    "location": "Lakewood, CO",
    "list_date": 5881810000,
    "primary_photo": "https://photos.zillowstatic.com/fp/c9b4ddc68a85db690cf3cd3e53f32237-p_e.jpg",
    "alt_photos": [],
    "latitude": 39.682755,
    "longitude": -105.15383
  },
  {
    "address": "1869 S Union Boulevard, Lakewood, CO",
    "price": 475000.0,
    "beds": 3.0,
    "baths": 3.0,
    "sqft": 2232.0,
    "year_built": "N/A",
    "description": "",
    "url": "https://www.zillow.com/homedetails/13780067_zpid/",
    "location": "Lakewood, CO",
    "list_date": 2606015000,
    "primary_photo": "https://photos.zillowstatic.com/fp/c5d471f293d197a3991c1185d83a3c20-p_e.jpg",
    "alt_photos": [],
    "latitude": 39.682625,
    "longitude": -105.130104
  },
  {
    "address": "1827 Quail Street  Unit 3, Lakewood, CO",
    "price": 460000.0,
    "beds": 4.0,
    "baths": 3.0,
    "sqft": 1963.0,
    "year_built": "N/A",
    "description": "",
    "url": "https://www.zillow.com/homedetails/13745974_zpid/",
    "location": "Lakewood, CO",
    "list_date": 6477014000,
    "primary_photo": "https://photos.zillowstatic.com/fp/f830edb69934737136eae35fbac49355-p_e.jpg",
    "alt_photos": [],
    "latitude": 39.746044,
    "longitude": -105.124
  },
  {
    "address": "9980 W Jewell Avenue  Unit B, Lakewood, CO",
    "price": 500000.0,
    "beds": 2.0,
    "baths": 3.0,
    "sqft": 1676.0,
    "year_built": "N/A",
    "description": "",
    "url": "https://www.zillow.com/homedetails/68063328_zpid/",
    "location": "Lakewood, CO",
    "list_date": 2597892000,
    "primary_photo": "https://photos.zillowstatic.com/fp/8ff7a10b601ad7735a9e3edfc2f7154a-p_e.jpg",
    "alt_photos": [],
    "latitude": 39.681053,
    "longitude": -105.108604
  },
  {
    "address": "7110 W Alaska Drive  Unit A, Lakewood, CO",
    "price": 450000.0,
    "beds": 1.0,
    "baths": 1.0,
    "sqft": 1019.0,
    "year_built": "N/A",
    "description": "",
    "url": "https://www.zillow.com/homedetails/82290811_zpid/",
    "location": "Lakewood, CO",
    "list_date": 3205729000,
    "primary_photo": "https://photos.zillowstatic.com/fp/0899ddd226ac2d513af087f4f9922426-p_e.jpg",
    "alt_photos": [],
    "latitude": 39.70907,
    "longitude": -105.075325
  }
]