[
  {
    "address": "9139 W 104th Circle, Westminster, CO",
    "price": 495000.0,
    "beds": 3.0,
    "baths": 3.0,
    "sqft": 1471.0,
    "year_built": "N/A",
    "description": "",
    "url": "https://www.zillow.com/homedetails/82593944_zpid/",
    "location": "Westminster, CO",
    "list_date": 485939000,
    "primary_photo": "https://photos.zillowstatic.com/fp/65c41fdccf607cac364f2e80e72a2b2b-p_e.jpg",
    "alt_photos": [],
    "latitude": 39.88731,
    "longitude": -105.09743
  },
  {
    "address": "5783 W 76th Drive, Arvada, CO",
    "price": 490000.0,
    "beds": 3.0,
    "baths": 2.0,
    "sqft": 1235.0,
    "year_built": "N/A",
    "description": "",
    "url": "https://www.zillow.com/homedetails/13703936_zpid/",
    "location": "Arvada, CO",
    "list_date": 1869579000,
    "primary_photo": "https://photos.zillowstatic.com/fp/e610dce93234b86c9ccb7e422318bc27-p_e.jpg",
    "alt_photos": [],
    "latitude": 39.835915,
    "longitude": -105.05945
  },
  {
    "address": "7820 Mccella Court, Westminster, CO",
    "price": 500000.0,
    "beds": 4.0,
    "baths": 2.0,
    "sqft": 2160.0,
    "year_built": "N/A",
    "description": "",
    "url": "https://www.zillow.com/homedetails/12994299_zpid/",
    "location": "Westminster, CO",
    "list_date": 21805349000,
    "primary_photo": "https://photos.zillowstatic.com/fp/d6883b595c320d06027fff7631fe8dba-p_e.jpg",
    "alt_photos": [],
    "latitude": 39.83868,
    "longitude": -105.03755
  },
  {
    "address": "9241 Hazel Ct, Westminster, CO",
    "price": 465000.0,
    "beds": 3.0,
    "baths": 2.0,
    "sqft": 1614.0,
    "year_built": "N/A",
    "description": "",
    "url": "https://www.zillow.com/homedetails/12981407_zpid/",
    "location": "Westminster, CO",
    "list_date": 3184329000,
    "primary_photo": "https://photos.zillowstatic.com/fp/c97bf22ab3feabb26e2e4da9318c7360-p_e.jpg",
    "alt_photos": [],
    "latitude": 39.86436,
    "longitude": -105.02984
  },
  {
    "address": "8865 Meade Court, Westminster, CO",
    "price": 465000.0,
    "beds": 3.0,
    "baths": 3.0,
    "sqft": 1288.0,
    "year_built": "N/A",
    "description": "",
    "url": "https://www.zillow.com/homedetails/12980918_zpid/",
    "location": "Westminster, CO",
    "list_date": 6014084000,
    "primary_photo": "https://photos.zillowstatic.com/fp/2ae57ddcad52bd52a5e6c5c81ba04e31-p_e.jpg",
    "alt_photos": [],
    "latitude": 39.858112,
    "longitude": -105.03634
  },
  {
    "address": "7891 Maria Street, Westminster, CO",
    "price": 500000.0,
    "beds": 4.0,
    "baths": 2.0,
    "sqft": 2160.0,
    "year_built": "N/A",
    "description": "",
    "url": "https://www.zillow.com/homedetails/12994311_zpid/",
    "location": "Westminster, CO",
    "list_date": 68042000,
    "primary_photo": "https://photos.zillowstatic.com/fp/2c1fbebada573fdbd960b57ce88af33b-p_e.jpg",
    "alt_photos": [],
    "latitude": 39.83962,
    "longitude": -105.0379
  },
  {
    "address": "3400 Mowry Place, Westminster, CO",
    "price": 499500.0,
    "beds": 4.0,
    "baths": 3.0,
    "sqft": 2214.0,
    "year_built": "N/A",
    "description": "",
    "url": "https://www.zillow.com/homedetails/12981316_zpid/",
    "location": "Westminster, CO",
    "list_date": 68157694000,
    "primary_photo": "https://photos.zillowstatic.com/fp/52f20c049ecace23d220a4d9a3671221-p_e.jpg",
    "alt_photos": [],
    "latitude": 39.867153,
    "longitude": -105.032364
  }
]